{
  "type": "FeatureCollection",
  "features": [
    {
      "type": "Feature",
      "geometry": {
        "type": "Point",
        "coordinates": [
          100.521462,
          13.719268
        ]
      },
      "properties": {
        "name": "Surasak",
        "ref": "S5",
        "wikidata": "Q1030152",
        "lines": [
          "BTS Silom Line"
        ],
        "operational": true,
        "osm_id": 257066779
      }
    },
    {
      "type": "Feature",
      "geometry": {
        "type": "Point",
        "coordinates": [
          100.529325,
          13.723797
        ]
      },
      "properties": {
        "name": "Chong Nonsi",
        "ref": "S3",
        "wikidata": "Q1030199",
        "lines": [
          "BTS Silom Line"
        ],
        "operational": true,
        "osm_id": 257066790
      }
    },
    {
      "type": "Feature",
      "geometry": {
        "type": "Point",
        "coordinates": [
          100.53945,
          13.739471
        ]
      },
      "properties": {
        "name": "Ratchadamri",
        "ref": "S1",
        "wikidata": "Q1030185",
        "lines": [
          "BTS Silom Line"
        ],
        "operational": true,
        "osm_id": 257066809
      }
    },
    {
      "type": "Feature",
      "geometry": {
        "type": "Point",
        "coordinates": [
          100.514223,
          13.718813
        ]
      },
      "properties": {
        "name": "Saphan Taksin",
        "ref": "S6",
        "wikidata": "Q1021944",
        "lines": [
          "BTS Silom Line"
        ],
        "operational": true,
        "osm_id": 257067085
      }
    },
    {
      "type": "Feature",
      "geometry": {
        "type": "Point",
        "coordinates": [
          100.546865,
          13.785936
        ]
      },
      "properties": {
        "name": "Sena Ruam",
        "ref": "N6",
        "wikidata": "Q16307686",
        "lines": [
          "BTS Sukhumvit Line"
        ],
        "operational": false,
        "osm_id": 270666805
      }
    },
    {
      "type": "Feature",
      "geometry": {
        "type": "Point",
        "coordinates": [
          100.517135,
          13.737571
        ]
      },
      "properties": {
        "name": "Hua Lamphong",
        "ref": "BL28",
        "wikidata": "Q13021858",
        "lines": [
          "MRT Blue Line"
        ],
        "operational": true,
        "osm_id": 280179404
      }
    },
    {
      "type": "Feature",
      "geometry": {
        "type": "Point",
        "coordinates": [
          100.565277,
          13.757817
        ]
      },
      "properties": {
        "name": "Phra Ram 9",
        "ref": "BL20",
        "wikidata": "Q1036857",
        "lines": [
          "MRT Blue Line"
        ],
        "operational": true,
        "osm_id": 280179427
      }
    },
    {
      "type": "Feature",
      "geometry": {
        "type": "Point",
        "coordinates": [
          100.559913,
          13.722672
        ]
      },
      "properties": {
        "name": "Queen Sirikit National Convention Centre",
        "ref": "BL23",
        "wikidata": "Q4921067",
        "lines": [
          "MRT Blue Line"
        ],
        "operational": true,
        "osm_id": 280179448
      }
    },
    {
      "type": "Feature",
      "geometry": {
        "type": "Point",
        "coordinates": [
          100.545725,
          13.725607
        ]
      },
      "properties": {
        "name": "Lumphini",
        "ref": "BL25",
        "wikidata": "Q4923316",
        "lines": [
          "MRT Blue Line"
        ],
        "operational": true,
        "osm_id": 280222462
      }
    },
    {
      "type": "Feature",
      "geometry": {
        "type": "Point",
        "coordinates": [
          100.573566,
          13.778688
        ]
      },
      "properties": {
        "name": "Huai Khwang",
        "ref": "BL18",
        "wikidata": "Q13021853",
        "lines": [
          "MRT Blue Line"
        ],
        "operational": true,
        "osm_id": 280239009
      }
    },
    {
      "type": "Feature",
      "geometry": {
        "type": "Point",
        "coordinates": [
          100.57408,
          13.789488
        ]
      },
      "properties": {
        "name": "Sutthisan",
        "ref": "BL17",
        "wikidata": "Q4923841",
        "lines": [
          "MRT Blue Line"
        ],
        "operational": true,
        "osm_id": 280239362
      }
    },
    {
      "type": "Feature",
      "geometry": {
        "type": "Point",
        "coordinates": [
          100.574554,
          13.798971
        ]
      },
      "properties": {
        "name": "Ratchadaphisek",
        "ref": "BL16",
        "wikidata": "Q4924317",
        "lines": [
          "MRT Blue Line"
        ],
        "operational": true,
        "osm_id": 280239363
      }
    },
    {
      "type": "Feature",
      "geometry": {
        "type": "Point",
        "coordinates": [
          100.570083,
          13.766291
        ]
      },
      "properties": {
        "name": "Thailand Cultural Centre",
        "ref": "BL19",
        "wikidata": "Q6633637",
        "lines": [
          "MRT Blue Line"
        ],
        "operational": true,
        "osm_id": 280240574
      }
    },
    {
      "type": "Feature",
      "geometry": {
        "type": "Point",
        "coordinates": [
          100.57287,
          13.806503
        ]
      },
      "properties": {
        "name": "Lat Phrao",
        "ref": "BL15",
        "wikidata": "Q4923372",
        "lines": [
          "MRT Blue Line"
        ],
        "operational": true,
        "osm_id": 280240577
      }
    },
    {
      "type": "Feature",
      "geometry": {
        "type": "Point",
        "coordinates": [
          100.561463,
          13.812881
        ]
      },
      "properties": {
        "name": "Phahon Yothin",
        "ref": "BL14",
        "wikidata": "Q4919752",
        "lines": [
          "MRT Blue Line"
        ],
        "operational": true,
        "osm_id": 280240580
      }
    },
    {
      "type": "Feature",
      "geometry": {
        "type": "Point",
        "coordinates": [
          100.553285,
          13.802964
        ]
      },
      "properties": {
        "name": "Chatuchak Park",
        "ref": "BL13",
        "wikidata": "Q6633742",
        "lines": [
          "MRT Blue Line"
        ],
        "operational": true,
        "osm_id": 280240585
      }
    },
    {
      "type": "Feature",
      "geometry": {
        "type": "Point",
        "coordinates": [
          100.547884,
          13.797948
        ]
      },
      "properties": {
        "name": "Kamphaeng Phet",
        "ref": "BL12",
        "wikidata": "Q13590884",
        "lines": [
          "MRT Blue Line"
        ],
        "operational": true,
        "osm_id": 280240589
      }
    },
    {
      "type": "Feature",
      "geometry": {
        "type": "Point",
        "coordinates": [
          100.55437,
          13.722126
        ]
      },
      "properties": {
        "name": "Khlong Toei",
        "ref": "BL24",
        "wikidata": "Q4920172",
        "lines": [
          "MRT Blue Line"
        ],
        "operational": true,
        "osm_id": 280729450
      }
    },
    {
      "type": "Feature",
      "geometry": {
        "type": "Point",
        "coordinates": [
          100.485968,
          13.719243
        ]
      },
      "properties": {
        "name": "Pho Nimit",
        "ref": "S9",
        "wikidata": "Q18388309",
        "lines": [
          "BTS Silom Line"
        ],
        "operational": true,
        "osm_id": 305693940
      }
    },
    {
      "type": "Feature",
      "geometry": {
        "type": "Point",
        "coordinates": [
          100.476691,
          13.71422
        ]
      },
      "properties": {
        "name": "Talat Phlu",
        "ref": "S10",
        "wikidata": "Q18393239",
        "lines": [
          "BTS Silom Line"
        ],
        "operational": true,
        "osm_id": 340133002
      }
    },
    {
      "type": "Feature",
      "geometry": {
        "type": "Point",
        "coordinates": [
          100.495159,
          13.721082
        ]
      },
      "properties": {
        "name": "Wongwian Yai",
        "ref": "S8",
        "wikidata": "Q13021824",
        "lines": [
          "BTS Silom Line"
        ],
        "operational": true,
        "osm_id": 443815142
      }
    },
    {
      "type": "Feature",
      "geometry": {
        "type": "Point",
        "coordinates": [
          100.502718,
          13.720931
        ]
      },
      "properties": {
        "name": "Krung Thon Buri",
        "ref": "S7",
        "wikidata": "Q11299499",
        "lines": [
          "BTS Silom Line"
        ],
        "operational": true,
        "osm_id": 443815144
      }
    },
    {
      "type": "Feature",
      "geometry": {
        "type": "Point",
        "coordinates": [
          100.534342,
          13.728568
        ]
      },
      "properties": {
        "name": "Sala Daeng",
        "ref": "S2",
        "wikidata": "Q13021833",
        "lines": [
          "BTS Silom Line"
        ],
        "operational": true,
        "osm_id": 451697335
      }
    },
    {
      "type": "Feature",
      "geometry": {
        "type": "Point",
        "coordinates": [
          100.562949,
          13.747855
        ]
      },
      "properties": {
        "name": "Asok Pier",
        "ref": "E5",
        "wikidata": "",
        "lines": [
          "BTS Sukhumvit Line"
        ],
        "operational": true,
        "osm_id": 566623721
      }
    },
    {
      "type": "Feature",
      "geometry": {
        "type": "Point",
        "coordinates": [
          100.652109,
          13.767724
        ]
      },
      "properties": {
        "name": "Wat Sriboonrueng",
        "ref": "E22",
        "wikidata": "",
        "lines": [
          "BTS Sukhumvit Line"
        ],
        "operational": true,
        "osm_id": 566631929
      }
    },
    {
      "type": "Feature",
      "geometry": {
        "type": "Point",
        "coordinates": [
          100.645262,
          13.738017
        ]
      },
      "properties": {
        "name": "Hua Mak",
        "ref": "A4",
        "wikidata": "Q6633722",
        "lines": [
          "Airport Rail Link"
        ],
        "operational": true,
        "osm_id": 970112998
      }
    },
    {
      "type": "Feature",
      "geometry": {
        "type": "Point",
        "coordinates": [
          100.468903,
          13.713023
        ]
      },
      "properties": {
        "name": "Wutthakat",
        "ref": "S11",
        "wikidata": "Q13021838",
        "lines": [
          "BTS Silom Line"
        ],
        "operational": true,
        "osm_id": 1113055052
      }
    },
    {
      "type": "Feature",
      "geometry": {
        "type": "Point",
        "coordinates": [
          100.549711,
          13.793823
        ]
      },
      "properties": {
        "name": "Saphan Khwai",
        "ref": "N7",
        "wikidata": "Q873690",
        "lines": [
          "BTS Sukhumvit Line"
        ],
        "operational": true,
        "osm_id": 1285516977
      }
    },
    {
      "type": "Feature",
      "geometry": {
        "type": "Point",
        "coordinates": [
          100.53422,
          13.745624
        ]
      },
      "properties": {
        "name": "Siam",
        "ref": "CEN",
        "wikidata": "Q1016037",
        "lines": [
          "BTS Sukhumvit Line"
        ],
        "operational": true,
        "osm_id": 1692209237
      }
    },
    {
      "type": "Feature",
      "geometry": {
        "type": "Point",
        "coordinates": [
          100.474042,
          13.729647
        ]
      },
      "properties": {
        "name": "Tha Phra",
        "ref": "BL01",
        "wikidata": "Q13021620",
        "lines": [
          "MRT Blue Line"
        ],
        "operational": true,
        "osm_id": 2094758805
      }
    },
    {
      "type": "Feature",
      "geometry": {
        "type": "Point",
        "coordinates": [
          100.473296,
          13.763325
        ]
      },
      "properties": {
        "name": "Bang Khun Non",
        "ref": "BL04",
        "wikidata": "Q66372327",
        "lines": [
          "MRT Blue Line"
        ],
        "operational": true,
        "osm_id": 2094758837
      }
    },
    {
      "type": "Feature",
      "geometry": {
        "type": "Point",
        "coordinates": [
          100.470709,
          13.740171
        ]
      },
      "properties": {
        "name": "Charan 13",
        "ref": "BL02",
        "wikidata": "Q66088546",
        "lines": [
          "MRT Blue Line"
        ],
        "operational": true,
        "osm_id": 3801037850
      }
    },
    {
      "type": "Feature",
      "geometry": {
        "type": "Point",
        "coordinates": [
          100.504888,
          13.792411
        ]
      },
      "properties": {
        "name": "Bang Phlat",
        "ref": "BL07",
        "wikidata": "Q95770449",
        "lines": [
          "MRT Blue Line"
        ],
        "operational": true,
        "osm_id": 3801037852
      }
    },
    {
      "type": "Feature",
      "geometry": {
        "type": "Point",
        "coordinates": [
          100.485256,
          13.777382
        ]
      },
      "properties": {
        "name": "Bang Yi Khan",
        "ref": "BL05",
        "wikidata": "Q66372347",
        "lines": [
          "MRT Blue Line"
        ],
        "operational": true,
        "osm_id": 3801037853
      }
    },
    {
      "type": "Feature",
      "geometry": {
        "type": "Point",
        "coordinates": [
          100.509786,
          13.79898
        ]
      },
      "properties": {
        "name": "Bang O",
        "ref": "BL08",
        "wikidata": "Q95770065",
        "lines": [
          "MRT Blue Line"
        ],
        "operational": true,
        "osm_id": 3801037855
      }
    },
    {
      "type": "Feature",
      "geometry": {
        "type": "Point",
        "coordinates": [
          100.422337,
          13.711944
        ]
      },
      "properties": {
        "name": "Bang Khae",
        "ref": "BL37",
        "wikidata": "Q19794085",
        "lines": [
          "MRT Blue Line"
        ],
        "operational": true,
        "osm_id": 3801037856
      }
    },
    {
      "type": "Feature",
      "geometry": {
        "type": "Point",
        "coordinates": [
          100.52101,
          13.806403
        ]
      },
      "properties": {
        "name": "Bang Pho",
        "ref": "BL09",
        "wikidata": "Q95769171",
        "lines": [
          "MRT Blue Line"
        ],
        "operational": true,
        "osm_id": 3801040557
      }
    },
    {
      "type": "Feature",
      "geometry": {
        "type": "Point",
        "coordinates": [
          100.465079,
          13.724618
        ]
      },
      "properties": {
        "name": "Bang Phai",
        "ref": "BL33",
        "wikidata": "Q66091152",
        "lines": [
          "MRT Blue Line"
        ],
        "operational": true,
        "osm_id": 3801040558
      }
    },
    {
      "type": "Feature",
      "geometry": {
        "type": "Point",
        "coordinates": [
          100.434326,
          13.71291
        ]
      },
      "properties": {
        "name": "Phasi Charoen",
        "ref": "BL36",
        "wikidata": "Q13021653",
        "lines": [
          "MRT Blue Line"
        ],
        "operational": true,
        "osm_id": 3801040559
      }
    },
    {
      "type": "Feature",
      "geometry": {
        "type": "Point",
        "coordinates": [
          100.409485,
          13.710877
        ]
      },
      "properties": {
        "name": "Lak Song",
        "ref": "BL38",
        "wikidata": "Q13021860",
        "lines": [
          "MRT Blue Line"
        ],
        "operational": true,
        "osm_id": 3801040561
      }
    },
    {
      "type": "Feature",
      "geometry": {
        "type": "Point",
        "coordinates": [
          100.445451,
          13.715559
        ]
      },
      "properties": {
        "name": "Phetkasem 48",
        "ref": "BL35",
        "wikidata": "Q16307680",
        "lines": [
          "MRT Blue Line"
        ],
        "operational": true,
        "osm_id": 3801040564
      }
    },
    {
      "type": "Feature",
      "geometry": {
        "type": "Point",
        "coordinates": [
          100.596732,
          13.875277
        ]
      },
      "properties": {
        "name": "Wat Phra Sri Mahathat",
        "ref": "N17",
        "wikidata": "Q61357968",
        "lines": [
          "BTS Sukhumvit Line"
        ],
        "operational": true,
        "osm_id": 3805378261
      }
    },
    {
      "type": "Feature",
      "geometry": {
        "type": "Point",
        "coordinates": [
          100.514968,
          13.839529
        ]
      },
      "properties": {
        "name": "Yaek Tiwanon",
        "ref": "PP13",
        "wikidata": "Q19794082",
        "lines": [
          "MRT Purple Line"
        ],
        "operational": true,
        "osm_id": 5222817654
      }
    },
    {
      "type": "Feature",
      "geometry": {
        "type": "Point",
        "coordinates": [
          100.526496,
          13.829864
        ]
      },
      "properties": {
        "name": "Wong Sawang",
        "ref": "PP14",
        "wikidata": "Q13021812",
        "lines": [
          "MRT Purple Line"
        ],
        "operational": true,
        "osm_id": 5222817655
      }
    },
    {
      "type": "Feature",
      "geometry": {
        "type": "Point",
        "coordinates": [
          100.532458,
          13.820081
        ]
      },
      "properties": {
        "name": "Bang Son",
        "ref": "PP15",
        "wikidata": "",
        "lines": [
          "MRT Purple Line"
        ],
        "operational": true,
        "osm_id": 5222817656
      }
    },
    {
      "type": "Feature",
      "geometry": {
        "type": "Point",
        "coordinates": [
          100.408216,
          13.892434
        ]
      },
      "properties": {
        "name": "Khlong Bang Phai",
        "ref": "PP1",
        "wikidata": "Q15379154",
        "lines": [
          "MRT Purple Line"
        ],
        "operational": true,
        "osm_id": 5222843674
      }
    },
    {
      "type": "Feature",
      "geometry": {
        "type": "Point",
        "coordinates": [
          100.409287,
          13.881012
        ]
      },
      "properties": {
        "name": "Talad Bang Yai",
        "ref": "PP2",
        "wikidata": "Q25103860",
        "lines": [
          "MRT Purple Line"
        ],
        "operational": true,
        "osm_id": 5222843675
      }
    },
    {
      "type": "Feature",
      "geometry": {
        "type": "Point",
        "coordinates": [
          100.419362,
          13.874675
        ]
      },
      "properties": {
        "name": "Sam Yaek Bang Yai",
        "ref": "PP3",
        "wikidata": "Q25106306",
        "lines": [
          "MRT Purple Line"
        ],
        "operational": true,
        "osm_id": 5222843676
      }
    },
    {
      "type": "Feature",
      "geometry": {
        "type": "Point",
        "coordinates": [
          100.433801,
          13.875768
        ]
      },
      "properties": {
        "name": "Bang Phlu",
        "ref": "PP4",
        "wikidata": "Q13021635",
        "lines": [
          "MRT Purple Line"
        ],
        "operational": true,
        "osm_id": 5222843677
      }
    },
    {
      "type": "Feature",
      "geometry": {
        "type": "Point",
        "coordinates": [
          100.444936,
          13.876607
        ]
      },
      "properties": {
        "name": "Bang Rak Yai",
        "ref": "PP5",
        "wikidata": "Q16307495",
        "lines": [
          "MRT Purple Line"
        ],
        "operational": true,
        "osm_id": 5222843678
      }
    },
    {
      "type": "Feature",
      "geometry": {
        "type": "Point",
        "coordinates": [
          100.455965,
          13.874808
        ]
      },
      "properties": {
        "name": "Bang Rak Noi Tha It",
        "ref": "PP6",
        "wikidata": "Q73813625",
        "lines": [
          "MRT Purple Line"
        ],
        "operational": true,
        "osm_id": 5222843679
      }
    },
    {
      "type": "Feature",
      "geometry": {
        "type": "Point",
        "coordinates": [
          100.466692,
          13.870511
        ]
      },
      "properties": {
        "name": "Sai Ma",
        "ref": "PP7",
        "wikidata": "Q13021885",
        "lines": [
          "MRT Purple Line"
        ],
        "operational": true,
        "osm_id": 5222843680
      }
    },
    {
      "type": "Feature",
      "geometry": {
        "type": "Point",
        "coordinates": [
          100.480128,
          13.87029
        ]
      },
      "properties": {
        "name": "Phra Nang Klao Bridge",
        "ref": "PP8",
        "wikidata": "Q96419170",
        "lines": [
          "MRT Purple Line"
        ],
        "operational": true,
        "osm_id": 5222843681
      }
    },
    {
      "type": "Feature",
      "geometry": {
        "type": "Point",
        "coordinates": [
          100.494077,
          13.865961
        ]
      },
      "properties": {
        "name": "Yaek Nonthaburi 1",
        "ref": "PP9",
        "wikidata": "Q73811536",
        "lines": [
          "MRT Purple Line"
        ],
        "operational": true,
        "osm_id": 5222843682
      }
    },
    {
      "type": "Feature",
      "geometry": {
        "type": "Point",
        "coordinates": [
          100.504652,
          13.861653
        ]
      },
      "properties": {
        "name": "Bang Krasor",
        "ref": "PP10",
        "wikidata": "Q13021840",
        "lines": [
          "MRT Purple Line"
        ],
        "operational": true,
        "osm_id": 5222843683
      }
    },
    {
      "type": "Feature",
      "geometry": {
        "type": "Point",
        "coordinates": [
          100.513067,
          13.860174
        ]
      },
      "properties": {
        "name": "Nonthaburi Civic Center",
        "ref": "PP11",
        "wikidata": "Q25106308",
        "lines": [
          "MRT Purple Line"
        ],
        "operational": true,
        "osm_id": 5222843684
      }
    },
    {
      "type": "Feature",
      "geometry": {
        "type": "Point",
        "coordinates": [
          100.514715,
          13.848531
        ]
      },
      "properties": {
        "name": "Ministry of Public Health",
        "ref": "PP12",
        "wikidata": "Q96418970",
        "lines": [
          "MRT Purple Line"
        ],
        "operational": true,
        "osm_id": 5222843685
      }
    },
    {
      "type": "Feature",
      "geometry": {
        "type": "Point",
        "coordinates": [
          100.553796,
          13.802605
        ]
      },
      "properties": {
        "name": "Mo Chit",
        "ref": "N8",
        "wikidata": "Q873641",
        "lines": [
          "BTS Sukhumvit Line"
        ],
        "operational": true,
        "osm_id": 5388599065
      }
    },
    {
      "type": "Feature",
      "geometry": {
        "type": "Point",
        "coordinates": [
          100.54462,
          13.779708
        ]
      },
      "properties": {
        "name": "Ari",
        "ref": "N5",
        "wikidata": "Q6149301",
        "lines": [
          "BTS Sukhumvit Line"
        ],
        "operational": true,
        "osm_id": 5388607091
      }
    },
    {
      "type": "Feature",
      "geometry": {
        "type": "Point",
        "coordinates": [
          100.533821,
          13.756964
        ]
      },
      "properties": {
        "name": "Phaya Thai",
        "ref": "N2",
        "wikidata": "Q15139351",
        "lines": [
          "BTS Sukhumvit Line"
        ],
        "operational": true,
        "osm_id": 5388610344
      }
    },
    {
      "type": "Feature",
      "geometry": {
        "type": "Point",
        "coordinates": [
          100.531553,
          13.75186
        ]
      },
      "properties": {
        "name": "Ratchathewi",
        "ref": "N1",
        "wikidata": "Q6633184",
        "lines": [
          "BTS Sukhumvit Line"
        ],
        "operational": true,
        "osm_id": 5388611982
      }
    },
    {
      "type": "Feature",
      "geometry": {
        "type": "Point",
        "coordinates": [
          100.542073,
          13.772623
        ]
      },
      "properties": {
        "name": "Sanam Pao",
        "ref": "N4",
        "wikidata": "Q4922512",
        "lines": [
          "BTS Sukhumvit Line"
        ],
        "operational": true,
        "osm_id": 5388638318
      }
    },
    {
      "type": "Feature",
      "geometry": {
        "type": "Point",
        "coordinates": [
          100.601806,
          13.661185
        ]
      },
      "properties": {
        "name": "Bearing",
        "ref": "E14",
        "wikidata": "Q6633805",
        "lines": [
          "BTS Sukhumvit Line"
        ],
        "operational": true,
        "osm_id": 5391599348
      }
    },
    {
      "type": "Feature",
      "geometry": {
        "type": "Point",
        "coordinates": [
          100.604663,
          13.668138
        ]
      },
      "properties": {
        "name": "Bang Na",
        "ref": "E13",
        "wikidata": "Q6633173",
        "lines": [
          "BTS Sukhumvit Line"
        ],
        "operational": true,
        "osm_id": 5391610964
      }
    },
    {
      "type": "Feature",
      "geometry": {
        "type": "Point",
        "coordinates": [
          100.591236,
          13.715169
        ]
      },
      "properties": {
        "name": "Phra Khanong",
        "ref": "E8",
        "wikidata": "Q4924738",
        "lines": [
          "BTS Sukhumvit Line"
        ],
        "operational": true,
        "osm_id": 5391610985
      }
    },
    {
      "type": "Feature",
      "geometry": {
        "type": "Point",
        "coordinates": [
          100.537053,
          13.762759
        ]
      },
      "properties": {
        "name": "Victory Monument",
        "ref": "N3",
        "wikidata": "Q4919845",
        "lines": [
          "BTS Sukhumvit Line"
        ],
        "operational": true,
        "osm_id": 5391611863
      }
    },
    {
      "type": "Feature",
      "geometry": {
        "type": "Point",
        "coordinates": [
          100.60947,
          13.679875
        ]
      },
      "properties": {
        "name": "Udom Suk",
        "ref": "E12",
        "wikidata": "Q13021857",
        "lines": [
          "BTS Sukhumvit Line"
        ],
        "operational": true,
        "osm_id": 5391613497
      }
    },
    {
      "type": "Feature",
      "geometry": {
        "type": "Point",
        "coordinates": [
          100.608996,
          13.689279
        ]
      },
      "properties": {
        "name": "Punnawithi",
        "ref": "E11",
        "wikidata": "Q6633186",
        "lines": [
          "BTS Sukhumvit Line"
        ],
        "operational": true,
        "osm_id": 5391616767
      }
    },
    {
      "type": "Feature",
      "geometry": {
        "type": "Point",
        "coordinates": [
          100.60534,
          13.696759
        ]
      },
      "properties": {
        "name": "Bang Chak",
        "ref": "E10",
        "wikidata": "Q6633183",
        "lines": [
          "BTS Sukhumvit Line"
        ],
        "operational": true,
        "osm_id": 5391618414
      }
    },
    {
      "type": "Feature",
      "geometry": {
        "type": "Point",
        "coordinates": [
          100.601004,
          13.705625
        ]
      },
      "properties": {
        "name": "On Nut",
        "ref": "E9",
        "wikidata": "Q1028755",
        "lines": [
          "BTS Sukhumvit Line"
        ],
        "operational": true,
        "osm_id": 5391620400
      }
    },
    {
      "type": "Feature",
      "geometry": {
        "type": "Point",
        "coordinates": [
          100.560357,
          13.737043
        ]
      },
      "properties": {
        "name": "Asok",
        "ref": "E4",
        "wikidata": "Q4924120",
        "lines": [
          "BTS Sukhumvit Line"
        ],
        "operational": true,
        "osm_id": 5391625873
      }
    },
    {
      "type": "Feature",
      "geometry": {
        "type": "Point",
        "coordinates": [
          100.578505,
          13.724226
        ]
      },
      "properties": {
        "name": "Thong Lo",
        "ref": "E6",
        "wikidata": "Q4924220",
        "lines": [
          "BTS Sukhumvit Line"
        ],
        "operational": true,
        "osm_id": 5391626092
      }
    },
    {
      "type": "Feature",
      "geometry": {
        "type": "Point",
        "coordinates": [
          100.555429,
          13.740536
        ]
      },
      "properties": {
        "name": "Nana",
        "ref": "E3",
        "wikidata": "Q6633167",
        "lines": [
          "BTS Sukhumvit Line"
        ],
        "operational": true,
        "osm_id": 5391628766
      }
    },
    {
      "type": "Feature",
      "geometry": {
        "type": "Point",
        "coordinates": [
          100.548976,
          13.743068
        ]
      },
      "properties": {
        "name": "Phloen Chit",
        "ref": "E2",
        "wikidata": "Q4921113",
        "lines": [
          "BTS Sukhumvit Line"
        ],
        "operational": true,
        "osm_id": 5391631777
      }
    },
    {
      "type": "Feature",
      "geometry": {
        "type": "Point",
        "coordinates": [
          100.543068,
          13.744097
        ]
      },
      "properties": {
        "name": "Chit Lom",
        "ref": "E1",
        "wikidata": "Q6633149",
        "lines": [
          "BTS Sukhumvit Line"
        ],
        "operational": true,
        "osm_id": 5391636575
      }
    },
    {
      "type": "Feature",
      "geometry": {
        "type": "Point",
        "coordinates": [
          100.595786,
          13.646487
        ]
      },
      "properties": {
        "name": "Samrong",
        "ref": "E15",
        "wikidata": "Q13021846",
        "lines": [
          "BTS Sukhumvit Line"
        ],
        "operational": true,
        "osm_id": 5391659126
      }
    },
    {
      "type": "Feature",
      "geometry": {
        "type": "Point",
        "coordinates": [
          100.56134,
          13.737395
        ]
      },
      "properties": {
        "name": "Sukhumvit",
        "ref": "BL22",
        "wikidata": "Q1036841",
        "lines": [
          "MRT Blue Line"
        ],
        "operational": true,
        "osm_id": 5391691787
      }
    },
    {
      "type": "Feature",
      "geometry": {
        "type": "Point",
        "coordinates": [
          100.585111,
          13.719539
        ]
      },
      "properties": {
        "name": "Ekkamai",
        "ref": "E7",
        "wikidata": "Q4919536",
        "lines": [
          "BTS Sukhumvit Line"
        ],
        "operational": true,
        "osm_id": 5405616025
      }
    },
    {
      "type": "Feature",
      "geometry": {
        "type": "Point",
        "coordinates": [
          100.509069,
          13.726462
        ]
      },
      "properties": {
        "name": "Charoen Nakhon",
        "ref": "G2",
        "wikidata": "Q104212231",
        "lines": [
          "BTS Gold Line"
        ],
        "operational": true,
        "osm_id": 5812248586
      }
    },
    {
      "type": "Feature",
      "geometry": {
        "type": "Point",
        "coordinates": [
          100.507721,
          13.730307
        ]
      },
      "properties": {
        "name": "Khlong San",
        "ref": "G3",
        "wikidata": "Q104212244",
        "lines": [
          "BTS Gold Line"
        ],
        "operational": true,
        "osm_id": 5812248587
      }
    },
    {
      "type": "Feature",
      "geometry": {
        "type": "Point",
        "coordinates": [
          100.517481,
          13.812095
        ]
      },
      "properties": {
        "name": "Wat Soi Thong",
        "ref": "N23",
        "wikidata": "",
        "lines": [
          "BTS Sukhumvit Line"
        ],
        "operational": true,
        "osm_id": 5818119896
      }
    },
    {
      "type": "Feature",
      "geometry": {
        "type": "Point",
        "coordinates": [
          100.592006,
          13.637277
        ]
      },
      "properties": {
        "name": "Pu Chao",
        "ref": "E16",
        "wikidata": "Q59779848",
        "lines": [
          "BTS Sukhumvit Line"
        ],
        "operational": true,
        "osm_id": 6124793513
      }
    },
    {
      "type": "Feature",
      "geometry": {
        "type": "Point",
        "coordinates": [
          100.59016,
          13.621594
        ]
      },
      "properties": {
        "name": "Chang Erawan",
        "ref": "E17",
        "wikidata": "Q13021646",
        "lines": [
          "BTS Sukhumvit Line"
        ],
        "operational": true,
        "osm_id": 6124793514
      }
    },
    {
      "type": "Feature",
      "geometry": {
        "type": "Point",
        "coordinates": [
          100.594906,
          13.608409
        ]
      },
      "properties": {
        "name": "Royal Thai Naval Academy",
        "ref": "E18",
        "wikidata": "Q60034232",
        "lines": [
          "BTS Sukhumvit Line"
        ],
        "operational": true,
        "osm_id": 6124793515
      }
    },
    {
      "type": "Feature",
      "geometry": {
        "type": "Point",
        "coordinates": [
          100.597092,
          13.602124
        ]
      },
      "properties": {
        "name": "Pak Nam",
        "ref": "E19",
        "wikidata": "Q60034220",
        "lines": [
          "BTS Sukhumvit Line"
        ],
        "operational": true,
        "osm_id": 6124793516
      }
    },
    {
      "type": "Feature",
      "geometry": {
        "type": "Point",
        "coordinates": [
          100.609035,
          13.591997
        ]
      },
      "properties": {
        "name": "Srinagarindra",
        "ref": "E20",
        "wikidata": "Q60034186",
        "lines": [
          "BTS Sukhumvit Line"
        ],
        "operational": true,
        "osm_id": 6124793517
      }
    },
    {
      "type": "Feature",
      "geometry": {
        "type": "Point",
        "coordinates": [
          100.607905,
          13.584192
        ]
      },
      "properties": {
        "name": "Phraek Sa",
        "ref": "E21",
        "wikidata": "Q60034142",
        "lines": [
          "BTS Sukhumvit Line"
        ],
        "operational": true,
        "osm_id": 6124793521
      }
    },
    {
      "type": "Feature",
      "geometry": {
        "type": "Point",
        "coordinates": [
          100.607694,
          13.567687
        ]
      },
      "properties": {
        "name": "Kheha",
        "ref": "E23",
        "wikidata": "Q59764824",
        "lines": [
          "BTS Sukhumvit Line"
        ],
        "operational": true,
        "osm_id": 6124793523
      }
    },
    {
      "type": "Feature",
      "geometry": {
        "type": "Point",
        "coordinates": [
          100.493327,
          13.783873
        ]
      },
      "properties": {
        "name": "Sirindhorn",
        "ref": "BL06",
        "wikidata": "Q83555413",
        "lines": [
          "MRT Blue Line"
        ],
        "operational": true,
        "osm_id": 6563228219
      }
    },
    {
      "type": "Feature",
      "geometry": {
        "type": "Point",
        "coordinates": [
          100.644158,
          13.711144
        ]
      },
      "properties": {
        "name": "Si Nut",
        "ref": "YL13",
        "wikidata": "",
        "lines": [
          "MRT Yellow Line"
        ],
        "operational": true,
        "osm_id": 6563254035
      }
    },
    {
      "type": "Feature",
      "geometry": {
        "type": "Point",
        "coordinates": [
          100.621691,
          13.917971
        ]
      },
      "properties": {
        "name": "Royal Thai Air Force Museum",
        "ref": "N22",
        "wikidata": "Q104211775",
        "lines": [
          "BTS Sukhumvit Line"
        ],
        "operational": true,
        "osm_id": 6681609016
      }
    },
    {
      "type": "Feature",
      "geometry": {
        "type": "Point",
        "coordinates": [
          100.617396,
          13.910714
        ]
      },
      "properties": {
        "name": "Bhumibol Adulyadej Hospital",
        "ref": "N21",
        "wikidata": "Q104211764",
        "lines": [
          "BTS Sukhumvit Line"
        ],
        "operational": true,
        "osm_id": 6681609017
      }
    },
    {
      "type": "Feature",
      "geometry": {
        "type": "Point",
        "coordinates": [
          100.609077,
          13.896613
        ]
      },
      "properties": {
        "name": "Saphan Mai",
        "ref": "N20",
        "wikidata": "Q104211663",
        "lines": [
          "BTS Sukhumvit Line"
        ],
        "operational": true,
        "osm_id": 6681609018
      }
    },
    {
      "type": "Feature",
      "geometry": {
        "type": "Point",
        "coordinates": [
          100.604269,
          13.888451
        ]
      },
      "properties": {
        "name": "Sai Yud",
        "ref": "N19",
        "wikidata": "Q104211647",
        "lines": [
          "BTS Sukhumvit Line"
        ],
        "operational": true,
        "osm_id": 6681609019
      }
    },
    {
      "type": "Feature",
      "geometry": {
        "type": "Point",
        "coordinates": [
          100.600731,
          13.882448
        ]
      },
      "properties": {
        "name": "Phahonyothin 59",
        "ref": "N18",
        "wikidata": "Q104211602",
        "lines": [
          "BTS Sukhumvit Line"
        ],
        "operational": true,
        "osm_id": 6681609020
      }
    },
    {
      "type": "Feature",
      "geometry": {
        "type": "Point",
        "coordinates": [
          100.591973,
          13.867578
        ]
      },
      "properties": {
        "name": "11th Infantry Regiment",
        "ref": "N16",
        "wikidata": "Q96096780",
        "lines": [
          "BTS Sukhumvit Line"
        ],
        "operational": true,
        "osm_id": 6681609024
      }
    },
    {
      "type": "Feature",
      "geometry": {
        "type": "Point",
        "coordinates": [
          100.585179,
          13.856049
        ]
      },
      "properties": {
        "name": "Bang Bua",
        "ref": "N15",
        "wikidata": "Q96075530",
        "lines": [
          "BTS Sukhumvit Line"
        ],
        "operational": true,
        "osm_id": 6681609025
      }
    },
    {
      "type": "Feature",
      "geometry": {
        "type": "Point",
        "coordinates": [
          100.581816,
          13.850326
        ]
      },
      "properties": {
        "name": "Royal Forest Department",
        "ref": "N14",
        "wikidata": "Q96096835",
        "lines": [
          "BTS Sukhumvit Line"
        ],
        "operational": true,
        "osm_id": 6681609026
      }
    },
    {
      "type": "Feature",
      "geometry": {
        "type": "Point",
        "coordinates": [
          100.577105,
          13.842314
        ]
      },
      "properties": {
        "name": "Kasetsart University",
        "ref": "N13",
        "wikidata": "Q76973081",
        "lines": [
          "BTS Sukhumvit Line"
        ],
        "operational": true,
        "osm_id": 6681609027
      }
    },
    {
      "type": "Feature",
      "geometry": {
        "type": "Point",
        "coordinates": [
          100.573629,
          13.836406
        ]
      },
      "properties": {
        "name": "Sena Nikhom",
        "ref": "N12",
        "wikidata": "Q76973119",
        "lines": [
          "BTS Sukhumvit Line"
        ],
        "operational": true,
        "osm_id": 6681609028
      }
    },
    {
      "type": "Feature",
      "geometry": {
        "type": "Point",
        "coordinates": [
          100.569722,
          13.829748
        ]
      },
      "properties": {
        "name": "Ratchayothin",
        "ref": "N11",
        "wikidata": "Q76972519",
        "lines": [
          "BTS Sukhumvit Line"
        ],
        "operational": true,
        "osm_id": 6681609029
      }
    },
    {
      "type": "Feature",
      "geometry": {
        "type": "Point",
        "coordinates": [
          100.566425,
          13.824121
        ]
      },
      "properties": {
        "name": "Phahonyothin 24",
        "ref": "N10",
        "wikidata": "Q13021643",
        "lines": [
          "BTS Sukhumvit Line"
        ],
        "operational": true,
        "osm_id": 6681609030
      }
    },
    {
      "type": "Feature",
      "geometry": {
        "type": "Point",
        "coordinates": [
          100.751288,
          13.694267
        ]
      },
      "properties": {
        "name": "Suvarnabhumi",
        "ref": "A1",
        "wikidata": "Q6633190",
        "lines": [
          "Airport Rail Link"
        ],
        "operational": true,
        "osm_id": 6711003839
      }
    },
    {
      "type": "Feature",
      "geometry": {
        "type": "Point",
        "coordinates": [
          100.600154,
          13.742993
        ]
      },
      "properties": {
        "name": "Ramkhamhaeng",
        "ref": "A5",
        "wikidata": "Q6633628",
        "lines": [
          "Airport Rail Link"
        ],
        "operational": true,
        "osm_id": 6711009224
      }
    },
    {
      "type": "Feature",
      "geometry": {
        "type": "Point",
        "coordinates": [
          100.690817,
          13.732888
        ]
      },
      "properties": {
        "name": "Ban Thap Chang",
        "ref": "A3",
        "wikidata": "Q6895675",
        "lines": [
          "Airport Rail Link"
        ],
        "operational": true,
        "osm_id": 6711014684
      }
    },
    {
      "type": "Feature",
      "geometry": {
        "type": "Point",
        "coordinates": [
          100.748598,
          13.727682
        ]
      },
      "properties": {
        "name": "Lat Krabang",
        "ref": "A2",
        "wikidata": "Q15283201",
        "lines": [
          "Airport Rail Link"
        ],
        "operational": true,
        "osm_id": 6711016582
      }
    },
    {
      "type": "Feature",
      "geometry": {
        "type": "Point",
        "coordinates": [
          100.561143,
          13.750909
        ]
      },
      "properties": {
        "name": "Makkasan",
        "ref": "A6",
        "wikidata": "Q11340409",
        "lines": [
          "Airport Rail Link"
        ],
        "operational": true,
        "osm_id": 6711023184
      }
    },
    {
      "type": "Feature",
      "geometry": {
        "type": "Point",
        "coordinates": [
          100.542124,
          13.755107
        ]
      },
      "properties": {
        "name": "Ratchaprarop",
        "ref": "A7",
        "wikidata": "Q6633462",
        "lines": [
          "Airport Rail Link"
        ],
        "operational": true,
        "osm_id": 6711026524
      }
    },
    {
      "type": "Feature",
      "geometry": {
        "type": "Point",
        "coordinates": [
          100.534907,
          13.75671
        ]
      },
      "properties": {
        "name": "Phaya Thai",
        "ref": "A8",
        "wikidata": "Q13021649",
        "lines": [
          "Airport Rail Link"
        ],
        "operational": true,
        "osm_id": 6711028526
      }
    },
    {
      "type": "Feature",
      "geometry": {
        "type": "Point",
        "coordinates": [
          100.562036,
          13.816681
        ]
      },
      "properties": {
        "name": "Ha Yaek Lat Phrao",
        "ref": "N9",
        "wikidata": "Q16307668",
        "lines": [
          "BTS Sukhumvit Line"
        ],
        "operational": true,
        "osm_id": 6966466946
      }
    },
    {
      "type": "Feature",
      "geometry": {
        "type": "Point",
        "coordinates": [
          100.46932,
          13.755801
        ]
      },
      "properties": {
        "name": "Fai Chai",
        "ref": "BL03",
        "wikidata": "Q66087746",
        "lines": [
          "MRT Blue Line"
        ],
        "operational": true,
        "osm_id": 7096345624
      }
    },
    {
      "type": "Feature",
      "geometry": {
        "type": "Point",
        "coordinates": [
          100.457791,
          13.72079
        ]
      },
      "properties": {
        "name": "Bang Wa",
        "ref": "S12",
        "wikidata": "",
        "lines": [
          "BTS Silom Line"
        ],
        "operational": true,
        "osm_id": 7769639096
      }
    },
    {
      "type": "Feature",
      "geometry": {
        "type": "Point",
        "coordinates": [
          100.457023,
          13.72027
        ]
      },
      "properties": {
        "name": "Bang Wa",
        "ref": "BL34",
        "wikidata": "Q66091132",
        "lines": [
          "MRT Blue Line"
        ],
        "operational": true,
        "osm_id": 7769639097
      }
    },
    {
      "type": "Feature",
      "geometry": {
        "type": "Point",
        "coordinates": [
          100.530775,
          13.806163
        ]
      },
      "properties": {
        "name": "Tao Poon",
        "ref": "BL10;PP16",
        "wikidata": "Q13021868",
        "lines": [
          "MRT Blue Line"
        ],
        "operational": true,
        "osm_id": 7769639098
      }
    },
    {
      "type": "Feature",
      "geometry": {
        "type": "Point",
        "coordinates": [
          100.526686,
          13.720816
        ]
      },
      "properties": {
        "name": "Saint Louis",
        "ref": "S4",
        "wikidata": "Q13021839",
        "lines": [
          "BTS Silom Line"
        ],
        "operational": true,
        "osm_id": 7781158247
      }
    },
    {
      "type": "Feature",
      "geometry": {
        "type": "Point",
        "coordinates": [
          100.596604,
          13.645016
        ]
      },
      "properties": {
        "name": "Samrong",
        "ref": "YL23",
        "wikidata": "Q29068277",
        "lines": [
          "MRT Yellow Line"
        ],
        "operational": true,
        "osm_id": 7781303392
      }
    },
    {
      "type": "Feature",
      "geometry": {
        "type": "Point",
        "coordinates": [
          100.549474,
          13.826618
        ]
      },
      "properties": {
        "name": "Chatuchak",
        "ref": "RN02",
        "wikidata": "Q108596671",
        "lines": [
          "SRT Dark Red Line"
        ],
        "operational": true,
        "osm_id": 7787093471
      }
    },
    {
      "type": "Feature",
      "geometry": {
        "type": "Point",
        "coordinates": [
          100.557499,
          13.841593
        ]
      },
      "properties": {
        "name": "Wat Samian Nari",
        "ref": "RN03",
        "wikidata": "Q108596711",
        "lines": [
          "SRT Dark Red Line"
        ],
        "operational": true,
        "osm_id": 7787093472
      }
    },
    {
      "type": "Feature",
      "geometry": {
        "type": "Point",
        "coordinates": [
          100.561672,
          13.849366
        ]
      },
      "properties": {
        "name": "Bang Khen",
        "ref": "RN04",
        "wikidata": "Q6633329",
        "lines": [
          "SRT Dark Red Line"
        ],
        "operational": true,
        "osm_id": 7787093474
      }
    },
    {
      "type": "Feature",
      "geometry": {
        "type": "Point",
        "coordinates": [
          100.567531,
          13.860206
        ]
      },
      "properties": {
        "name": "Thung Song Hong",
        "ref": "RN05",
        "wikidata": "Q100635380",
        "lines": [
          "SRT Dark Red Line"
        ],
        "operational": true,
        "osm_id": 7787093475
      }
    },
    {
      "type": "Feature",
      "geometry": {
        "type": "Point",
        "coordinates": [
          100.581936,
          13.886314
        ]
      },
      "properties": {
        "name": "Lak Si",
        "ref": "RN06",
        "wikidata": "Q6633446",
        "lines": [
          "SRT Dark Red Line"
        ],
        "operational": true,
        "osm_id": 7787093476
      }
    },
    {
      "type": "Feature",
      "geometry": {
        "type": "Point",
        "coordinates": [
          100.588873,
          13.898657
        ]
      },
      "properties": {
        "name": "Kan Kheha",
        "ref": "RN07",
        "wikidata": "Q107751653",
        "lines": [
          "SRT Dark Red Line"
        ],
        "operational": true,
        "osm_id": 7787093477
      }
    },
    {
      "type": "Feature",
      "geometry": {
        "type": "Point",
        "coordinates": [
          100.597869,
          13.914688
        ]
      },
      "properties": {
        "name": "Don Muang",
        "ref": "RN08",
        "wikidata": "Q35596136",
        "lines": [
          "SRT Dark Red Line"
        ],
        "operational": true,
        "osm_id": 7787093478
      }
    },
    {
      "type": "Feature",
      "geometry": {
        "type": "Point",
        "coordinates": [
          100.723483,
          13.803544
        ]
      },
      "properties": {
        "name": "Keha Ramkhamhaeng",
        "ref": "OR27",
        "wikidata": "",
        "lines": [
          "MRT Orange Line"
        ],
        "operational": false,
        "osm_id": 7947495107
      }
    },
    {
      "type": "Feature",
      "geometry": {
        "type": "Point",
        "coordinates": [
          100.503715,
          13.721106
        ]
      },
      "properties": {
        "name": "Krung Thon Buri",
        "ref": "G1",
        "wikidata": "Q11299499",
        "lines": [
          "BTS Gold Line"
        ],
        "operational": true,
        "osm_id": 7947551369
      }
    },
    {
      "type": "Feature",
      "geometry": {
        "type": "Point",
        "coordinates": [
          100.646523,
          13.932366
        ]
      },
      "properties": {
        "name": "Khu Khot",
        "ref": "N24",
        "wikidata": "Q66103267",
        "lines": [
          "BTS Sukhumvit Line"
        ],
        "operational": true,
        "osm_id": 8214007176
      }
    },
    {
      "type": "Feature",
      "geometry": {
        "type": "Point",
        "coordinates": [
          100.641796,
          13.725343
        ]
      },
      "properties": {
        "name": "Kalantan",
        "ref": "YL12",
        "wikidata": "",
        "lines": [
          "MRT Yellow Line"
        ],
        "operational": true,
        "osm_id": 8717841725
      }
    },
    {
      "type": "Feature",
      "geometry": {
        "type": "Point",
        "coordinates": [
          100.63011,
          13.633102
        ]
      },
      "properties": {
        "name": "Si Dan",
        "ref": "YL20",
        "wikidata": "Q119009914",
        "lines": [
          "MRT Yellow Line"
        ],
        "operational": true,
        "osm_id": 10830450760
      }
    },
    {
      "type": "Feature",
      "geometry": {
        "type": "Point",
        "coordinates": [
          100.636274,
          13.643491
        ]
      },
      "properties": {
        "name": "Si Bearing",
        "ref": "YL19",
        "wikidata": "Q119009970",
        "lines": [
          "MRT Yellow Line"
        ],
        "operational": true,
        "osm_id": 10830450761
      }
    },
    {
      "type": "Feature",
      "geometry": {
        "type": "Point",
        "coordinates": [
          100.642161,
          13.654975
        ]
      },
      "properties": {
        "name": "Si La Salle",
        "ref": "YL18",
        "wikidata": "Q119010023",
        "lines": [
          "MRT Yellow Line"
        ],
        "operational": true,
        "osm_id": 10830450762
      }
    },
    {
      "type": "Feature",
      "geometry": {
        "type": "Point",
        "coordinates": [
          100.645068,
          13.667686
        ]
      },
      "properties": {
        "name": "Si Iam",
        "ref": "YL17",
        "wikidata": "Q119010023",
        "lines": [
          "MRT Yellow Line"
        ],
        "operational": true,
        "osm_id": 10830450763
      }
    },
    {
      "type": "Feature",
      "geometry": {
        "type": "Point",
        "coordinates": [
          100.646171,
          13.676638
        ]
      },
      "properties": {
        "name": "Si Udom",
        "ref": "",
        "wikidata": "Q119010086",
        "lines": [
          "MRT Yellow Line"
        ],
        "operational": true,
        "osm_id": 10867419319
      }
    },
    {
      "type": "Feature",
      "geometry": {
        "type": "Point",
        "coordinates": [
          100.647103,
          13.690864
        ]
      },
      "properties": {
        "name": "Suan Luang Rama IX",
        "ref": "YL15",
        "wikidata": "Q119010410",
        "lines": [
          "MRT Yellow Line"
        ],
        "operational": true,
        "osm_id": 10867419320
      }
    },
    {
      "type": "Feature",
      "geometry": {
        "type": "Point",
        "coordinates": [
          100.646473,
          13.701122
        ]
      },
      "properties": {
        "name": "Srinagarindra 38",
        "ref": "YL14",
        "wikidata": "Q119010493",
        "lines": [
          "MRT Yellow Line"
        ],
        "operational": true,
        "osm_id": 10867419321
      }
    },
    {
      "type": "Feature",
      "geometry": {
        "type": "Point",
        "coordinates": [
          100.641138,
          13.736148
        ]
      },
      "properties": {
        "name": "Hua Mak",
        "ref": "YL11",
        "wikidata": "Q109130566",
        "lines": [
          "MRT Yellow Line"
        ],
        "operational": true,
        "osm_id": 10867419324
      }
    },
    {
      "type": "Feature",
      "geometry": {
        "type": "Point",
        "coordinates": [
          100.644788,
          13.750411
        ]
      },
      "properties": {
        "name": "Si Kritha",
        "ref": "YL10",
        "wikidata": "Q119722574",
        "lines": [
          "MRT Yellow Line"
        ],
        "operational": true,
        "osm_id": 10867419325
      }
    },
    {
      "type": "Feature",
      "geometry": {
        "type": "Point",
        "coordinates": [
          100.645572,
          13.761819
        ]
      },
      "properties": {
        "name": "Yaek Lam Sali",
        "ref": "YL09",
        "wikidata": "Q119722811",
        "lines": [
          "MRT Yellow Line"
        ],
        "operational": true,
        "osm_id": 10867419326
      }
    },
    {
      "type": "Feature",
      "geometry": {
        "type": "Point",
        "coordinates": [
          100.639769,
          13.769075
        ]
      },
      "properties": {
        "name": "Bang Kapi",
        "ref": "YL08",
        "wikidata": "Q119723016",
        "lines": [
          "MRT Yellow Line"
        ],
        "operational": true,
        "osm_id": 10867419327
      }
    },
    {
      "type": "Feature",
      "geometry": {
        "type": "Point",
        "coordinates": [
          100.629842,
          13.774633
        ]
      },
      "properties": {
        "name": "Lat Phrao 101",
        "ref": "YL07",
        "wikidata": "Q119726019",
        "lines": [
          "MRT Yellow Line"
        ],
        "operational": true,
        "osm_id": 10867419328
      }
    },
    {
      "type": "Feature",
      "geometry": {
        "type": "Point",
        "coordinates": [
          100.62316,
          13.778368
        ]
      },
      "properties": {
        "name": "Mahatthai",
        "ref": "YL06",
        "wikidata": "Q119723149",
        "lines": [
          "MRT Yellow Line"
        ],
        "operational": true,
        "osm_id": 10867419329
      }
    },
    {
      "type": "Feature",
      "geometry": {
        "type": "Point",
        "coordinates": [
          100.584195,
          13.800164
        ]
      },
      "properties": {
        "name": "Phawana",
        "ref": "YL02",
        "wikidata": "Q16307526",
        "lines": [
          "MRT Yellow Line"
        ],
        "operational": true,
        "osm_id": 10867419330
      }
    },
    {
      "type": "Feature",
      "geometry": {
        "type": "Point",
        "coordinates": [
          100.59443,
          13.794425
        ]
      },
      "properties": {
        "name": "Chok Chai 4",
        "ref": "YL03",
        "wikidata": "Q108004772",
        "lines": [
          "MRT Yellow Line"
        ],
        "operational": true,
        "osm_id": 10867419331
      }
    },
    {
      "type": "Feature",
      "geometry": {
        "type": "Point",
        "coordinates": [
          100.607573,
          13.787092
        ]
      },
      "properties": {
        "name": "Lat Phrao 71",
        "ref": "YL04",
        "wikidata": "Q119723265",
        "lines": [
          "MRT Yellow Line"
        ],
        "operational": true,
        "osm_id": 10867419332
      }
    },
    {
      "type": "Feature",
      "geometry": {
        "type": "Point",
        "coordinates": [
          100.613658,
          13.7837
        ]
      },
      "properties": {
        "name": "Lat Phrao 83",
        "ref": "YL05",
        "wikidata": "Q119723213",
        "lines": [
          "MRT Yellow Line"
        ],
        "operational": true,
        "osm_id": 10867419333
      }
    },
    {
      "type": "Feature",
      "geometry": {
        "type": "Point",
        "coordinates": [
          100.518116,
          13.859722
        ]
      },
      "properties": {
        "name": "Nonthaburi Civic Center",
        "ref": "PK01",
        "wikidata": "Q25106308",
        "lines": [
          "MRT Pink Line"
        ],
        "operational": true,
        "osm_id": 11364308559
      }
    },
    {
      "type": "Feature",
      "geometry": {
        "type": "Point",
        "coordinates": [
          100.520654,
          13.862659
        ]
      },
      "properties": {
        "name": "Khae Rai",
        "ref": "PK02",
        "wikidata": "Q16307698",
        "lines": [
          "MRT Pink Line"
        ],
        "operational": true,
        "osm_id": 11364361871
      }
    },
    {
      "type": "Feature",
      "geometry": {
        "type": "Point",
        "coordinates": [
          100.516321,
          13.874136
        ]
      },
      "properties": {
        "name": "Sanambin Nam",
        "ref": "PK03",
        "wikidata": "Q13021842",
        "lines": [
          "MRT Pink Line"
        ],
        "operational": true,
        "osm_id": 11364361876
      }
    },
    {
      "type": "Feature",
      "geometry": {
        "type": "Point",
        "coordinates": [
          100.505395,
          13.906199
        ]
      },
      "properties": {
        "name": "Yaek Pak Kret",
        "ref": "PK06",
        "wikidata": "Q123537238",
        "lines": [
          "MRT Pink Line"
        ],
        "operational": true,
        "osm_id": 11364361877
      }
    },
    {
      "type": "Feature",
      "geometry": {
        "type": "Point",
        "coordinates": [
          100.510574,
          13.889278
        ]
      },
      "properties": {
        "name": "Samakkhi",
        "ref": "PK04",
        "wikidata": "Q13021845",
        "lines": [
          "MRT Pink Line"
        ],
        "operational": true,
        "osm_id": 11364361878
      }
    },
    {
      "type": "Feature",
      "geometry": {
        "type": "Point",
        "coordinates": [
          100.507089,
          13.898566
        ]
      },
      "properties": {
        "name": "Royal Irrigation Department",
        "ref": "PK05",
        "wikidata": "Q123537197",
        "lines": [
          "MRT Pink Line"
        ],
        "operational": true,
        "osm_id": 11364361879
      }
    },
    {
      "type": "Feature",
      "geometry": {
        "type": "Point",
        "coordinates": [
          100.515577,
          13.906496
        ]
      },
      "properties": {
        "name": "Pak Kret Bypass",
        "ref": "PK07",
        "wikidata": "Q123537262",
        "lines": [
          "MRT Pink Line"
        ],
        "operational": true,
        "osm_id": 11364361880
      }
    },
    {
      "type": "Feature",
      "geometry": {
        "type": "Point",
        "coordinates": [
          100.52926,
          13.904158
        ]
      },
      "properties": {
        "name": "Chaeng Watthana-Pak Kret 28",
        "ref": "PK08",
        "wikidata": "Q123537277",
        "lines": [
          "MRT Pink Line"
        ],
        "operational": true,
        "osm_id": 11364361882
      }
    },
    {
      "type": "Feature",
      "geometry": {
        "type": "Point",
        "coordinates": [
          100.540008,
          13.900574
        ]
      },
      "properties": {
        "name": "Si Rat",
        "ref": "PK09",
        "wikidata": "Q16307483",
        "lines": [
          "MRT Pink Line"
        ],
        "operational": true,
        "osm_id": 11364361916
      }
    },
    {
      "type": "Feature",
      "geometry": {
        "type": "Point",
        "coordinates": [
          100.548447,
          13.897428
        ]
      },
      "properties": {
        "name": "Muang Thong Thani",
        "ref": "PK10",
        "wikidata": "Q123537334",
        "lines": [
          "MRT Pink Line"
        ],
        "operational": true,
        "osm_id": 11364361947
      }
    },
    {
      "type": "Feature",
      "geometry": {
        "type": "Point",
        "coordinates": [
          100.56015,
          13.893304
        ]
      },
      "properties": {
        "name": "Chaeng Watthana 14",
        "ref": "PK11",
        "wikidata": "Q123537372",
        "lines": [
          "MRT Pink Line"
        ],
        "operational": true,
        "osm_id": 11364361977
      }
    },
    {
      "type": "Feature",
      "geometry": {
        "type": "Point",
        "coordinates": [
          100.725838,
          13.812513
        ]
      },
      "properties": {
        "name": "Min Buri Market",
        "ref": "PK29",
        "wikidata": "Q123537788",
        "lines": [
          "MRT Pink Line"
        ],
        "operational": true,
        "osm_id": 11364411040
      }
    },
    {
      "type": "Feature",
      "geometry": {
        "type": "Point",
        "coordinates": [
          100.567352,
          13.890765
        ]
      },
      "properties": {
        "name": "Government Complex",
        "ref": "PK12",
        "wikidata": "Q123537386",
        "lines": [
          "MRT Pink Line"
        ],
        "operational": true,
        "osm_id": 11364465363
      }
    },
    {
      "type": "Feature",
      "geometry": {
        "type": "Point",
        "coordinates": [
          100.575714,
          13.887576
        ]
      },
      "properties": {
        "name": "National Telecom",
        "ref": "PK13",
        "wikidata": "Q123537477",
        "lines": [
          "MRT Pink Line"
        ],
        "operational": true,
        "osm_id": 11364501870
      }
    },
    {
      "type": "Feature",
      "geometry": {
        "type": "Point",
        "coordinates": [
          100.582686,
          13.884079
        ]
      },
      "properties": {
        "name": "Lak Si",
        "ref": "PK14",
        "wikidata": "Q6633446",
        "lines": [
          "MRT Pink Line"
        ],
        "operational": true,
        "osm_id": 11364501879
      }
    },
    {
      "type": "Feature",
      "geometry": {
        "type": "Point",
        "coordinates": [
          100.597205,
          13.874362
        ]
      },
      "properties": {
        "name": "Wat Phra Sri Mahathat",
        "ref": "PK16",
        "wikidata": "Q61357968",
        "lines": [
          "MRT Pink Line"
        ],
        "operational": true,
        "osm_id": 11364501913
      }
    },
    {
      "type": "Feature",
      "geometry": {
        "type": "Point",
        "coordinates": [
          100.589296,
          13.879939
        ]
      },
      "properties": {
        "name": "Rajabhat Phranakhon",
        "ref": "PK15",
        "wikidata": "Q16307599",
        "lines": [
          "MRT Pink Line"
        ],
        "operational": true,
        "osm_id": 11364501914
      }
    },
    {
      "type": "Feature",
      "geometry": {
        "type": "Point",
        "coordinates": [
          100.60262,
          13.870954
        ]
      },
      "properties": {
        "name": "Ram Inthra 3",
        "ref": "PK17",
        "wikidata": "Q123537774",
        "lines": [
          "MRT Pink Line"
        ],
        "operational": true,
        "osm_id": 11364501917
      }
    },
    {
      "type": "Feature",
      "geometry": {
        "type": "Point",
        "coordinates": [
          100.617815,
          13.862796
        ]
      },
      "properties": {
        "name": "Lat Pla Khao",
        "ref": "PK18",
        "wikidata": "Q123537777",
        "lines": [
          "MRT Pink Line"
        ],
        "operational": true,
        "osm_id": 11364501918
      }
    },
    {
      "type": "Feature",
      "geometry": {
        "type": "Point",
        "coordinates": [
          100.626131,
          13.858312
        ]
      },
      "properties": {
        "name": "Ram Inthra Kor Mor 4",
        "ref": "PK19",
        "wikidata": "Q123537779",
        "lines": [
          "MRT Pink Line"
        ],
        "operational": true,
        "osm_id": 11364501919
      }
    },
    {
      "type": "Feature",
      "geometry": {
        "type": "Point",
        "coordinates": [
          100.632226,
          13.855015
        ]
      },
      "properties": {
        "name": "Maiyalap",
        "ref": "PK20",
        "wikidata": "Q123537780",
        "lines": [
          "MRT Pink Line"
        ],
        "operational": true,
        "osm_id": 11364501920
      }
    },
    {
      "type": "Feature",
      "geometry": {
        "type": "Point",
        "coordinates": [
          100.642879,
          13.849264
        ]
      },
      "properties": {
        "name": "Vacharaphol",
        "ref": "PK21",
        "wikidata": "Q123537781",
        "lines": [
          "MRT Pink Line"
        ],
        "operational": true,
        "osm_id": 11364501922
      }
    },
    {
      "type": "Feature",
      "geometry": {
        "type": "Point",
        "coordinates": [
          100.650244,
          13.845267
        ]
      },
      "properties": {
        "name": "Ram Inthra Kor Mor 6",
        "ref": "PK22",
        "wikidata": "Q123537782",
        "lines": [
          "MRT Pink Line"
        ],
        "operational": true,
        "osm_id": 11364501923
      }
    },
    {
      "type": "Feature",
      "geometry": {
        "type": "Point",
        "coordinates": [
          100.667575,
          13.833787
        ]
      },
      "properties": {
        "name": "Ram Inthra Kor Mor 9",
        "ref": "PK24",
        "wikidata": "Q123537784",
        "lines": [
          "MRT Pink Line"
        ],
        "operational": true,
        "osm_id": 11364501927
      }
    },
    {
      "type": "Feature",
      "geometry": {
        "type": "Point",
        "coordinates": [
          100.658787,
          13.840625
        ]
      },
      "properties": {
        "name": "Khu Bon",
        "ref": "PK23",
        "wikidata": "Q123537783",
        "lines": [
          "MRT Pink Line"
        ],
        "operational": true,
        "osm_id": 11364501928
      }
    },
    {
      "type": "Feature",
      "geometry": {
        "type": "Point",
        "coordinates": [
          100.67721,
          13.824453
        ]
      },
      "properties": {
        "name": "Outer Ring Road-Ram Inthra",
        "ref": "PK25",
        "wikidata": "Q123537785",
        "lines": [
          "MRT Pink Line"
        ],
        "operational": true,
        "osm_id": 11364501929
      }
    },
    {
      "type": "Feature",
      "geometry": {
        "type": "Point",
        "coordinates": [
          100.702937,
          13.812724
        ]
      },
      "properties": {
        "name": "Bang Chan",
        "ref": "PK27",
        "wikidata": "Q123537787",
        "lines": [
          "MRT Pink Line"
        ],
        "operational": true,
        "osm_id": 11364501940
      }
    },
    {
      "type": "Feature",
      "geometry": {
        "type": "Point",
        "coordinates": [
          100.685651,
          13.816531
        ]
      },
      "properties": {
        "name": "Nopparat",
        "ref": "PK26",
        "wikidata": "Q123537786",
        "lines": [
          "MRT Pink Line"
        ],
        "operational": true,
        "osm_id": 11364501941
      }
    },
    {
      "type": "Feature",
      "geometry": {
        "type": "Point",
        "coordinates": [
          100.712629,
          13.812694
        ]
      },
      "properties": {
        "name": "Setthabutbamphen",
        "ref": "PK28",
        "wikidata": "Q123470968",
        "lines": [
          "MRT Pink Line"
        ],
        "operational": true,
        "osm_id": 11364501942
      }
    },
    {
      "type": "Feature",
      "geometry": {
        "type": "Point",
        "coordinates": [
          100.732691,
          13.808414
        ]
      },
      "properties": {
        "name": "Min Buri",
        "ref": "PK30",
        "wikidata": "Q123537773",
        "lines": [
          "MRT Pink Line"
        ],
        "operational": true,
        "osm_id": 11364501951
      }
    },
    {
      "type": "Feature",
      "geometry": {
        "type": "Point",
        "coordinates": [
          100.529085,
          13.74651
        ]
      },
      "properties": {
        "name": "National Stadium",
        "ref": "W1",
        "wikidata": "Q1030167",
        "lines": [
          "BTS Silom Line"
        ],
        "operational": true,
        "osm_id": 11505460640
      }
    },
    {
      "type": "Feature",
      "geometry": {
        "type": "Point",
        "coordinates": [
          100.519481,
          13.795299
        ]
      },
      "properties": {
        "name": "Parliament House",
        "ref": "PP17",
        "wikidata": "",
        "lines": [
          "MRT Purple Line"
        ],
        "operational": false,
        "osm_id": 12620662269
      }
    },
    {
      "type": "Feature",
      "geometry": {
        "type": "Point",
        "coordinates": [
          100.512939,
          13.78706
        ]
      },
      "properties": {
        "name": "Sri Yan",
        "ref": "PP18",
        "wikidata": "",
        "lines": [
          "MRT Purple Line"
        ],
        "operational": false,
        "osm_id": 12620662270
      }
    },
    {
      "type": "Feature",
      "geometry": {
        "type": "Point",
        "coordinates": [
          100.508881,
          13.779495
        ]
      },
      "properties": {
        "name": "Vajira Hospital",
        "ref": "PP19",
        "wikidata": "",
        "lines": [
          "MRT Purple Line"
        ],
        "operational": false,
        "osm_id": 12620663626
      }
    },
    {
      "type": "Feature",
      "geometry": {
        "type": "Point",
        "coordinates": [
          100.503522,
          13.748581
        ]
      },
      "properties": {
        "name": "Sam Yot",
        "ref": "PP23",
        "wikidata": "",
        "lines": [
          "MRT Purple Line"
        ],
        "operational": false,
        "osm_id": 12620670967
      }
    },
    {
      "type": "Feature",
      "geometry": {
        "type": "Point",
        "coordinates": [
          100.50541,
          13.772149
        ]
      },
      "properties": {
        "name": "National Library",
        "ref": "PP20",
        "wikidata": "",
        "lines": [
          "MRT Purple Line"
        ],
        "operational": false,
        "osm_id": 12620679797
      }
    },
    {
      "type": "Feature",
      "geometry": {
        "type": "Point",
        "coordinates": [
          100.495101,
          13.732513
        ]
      },
      "properties": {
        "name": "Memorial Bridge",
        "ref": "PP24",
        "wikidata": "",
        "lines": [
          "MRT Purple Line"
        ],
        "operational": false,
        "osm_id": 12620703436
      }
    },
    {
      "type": "Feature",
      "geometry": {
        "type": "Point",
        "coordinates": [
          100.492303,
          13.724355
        ]
      },
      "properties": {
        "name": "Wongwian Yai",
        "ref": "PP25",
        "wikidata": "",
        "lines": [
          "MRT Purple Line"
        ],
        "operational": false,
        "osm_id": 12620703437
      }
    },
    {
      "type": "Feature",
      "geometry": {
        "type": "Point",
        "coordinates": [
          100.488035,
          13.711944
        ]
      },
      "properties": {
        "name": "Somdech Phra Pinklao Hospital",
        "ref": "PP26",
        "wikidata": "",
        "lines": [
          "MRT Purple Line"
        ],
        "operational": false,
        "osm_id": 12620703438
      }
    },
    {
      "type": "Feature",
      "geometry": {
        "type": "Point",
        "coordinates": [
          100.482444,
          13.695466
        ]
      },
      "properties": {
        "name": "Dao Khanong",
        "ref": "PP27",
        "wikidata": "",
        "lines": [
          "MRT Purple Line"
        ],
        "operational": false,
        "osm_id": 12620703439
      }
    },
    {
      "type": "Feature",
      "geometry": {
        "type": "Point",
        "coordinates": [
          100.504208,
          13.757478
        ]
      },
      "properties": {
        "name": "Democracy Monument",
        "ref": "PP22",
        "wikidata": "",
        "lines": [
          "MRT Purple Line"
        ],
        "operational": false,
        "osm_id": 12620720586
      }
    },
    {
      "type": "Feature",
      "geometry": {
        "type": "Point",
        "coordinates": [
          100.53707,
          13.729198
        ]
      },
      "properties": {
        "name": "Si Lom",
        "ref": "BL26",
        "wikidata": "Q1036816",
        "lines": [
          "MRT Blue Line"
        ],
        "operational": true,
        "osm_id": 12803589960
      }
    },
    {
      "type": "Feature",
      "geometry": {
        "type": "Point",
        "coordinates": [
          100.50991,
          13.742209
        ]
      },
      "properties": {
        "name": "Wat Mangkon",
        "ref": "BL29",
        "wikidata": "Q13021830",
        "lines": [
          "MRT Blue Line"
        ],
        "operational": true,
        "osm_id": 12803915074
      }
    },
    {
      "type": "Feature",
      "geometry": {
        "type": "Point",
        "coordinates": [
          100.502302,
          13.747
        ]
      },
      "properties": {
        "name": "Sam Yot",
        "ref": "BL30",
        "wikidata": "Q61359058",
        "lines": [
          "MRT Blue Line"
        ],
        "operational": true,
        "osm_id": 12803915076
      }
    },
    {
      "type": "Feature",
      "geometry": {
        "type": "Point",
        "coordinates": [
          100.494624,
          13.744326
        ]
      },
      "properties": {
        "name": "Sanam Chai",
        "ref": "BL31",
        "wikidata": "Q19794088",
        "lines": [
          "MRT Blue Line"
        ],
        "operational": true,
        "osm_id": 12803915077
      }
    },
    {
      "type": "Feature",
      "geometry": {
        "type": "Point",
        "coordinates": [
          100.530121,
          13.732061
        ]
      },
      "properties": {
        "name": "Sam Yan",
        "ref": "BL27",
        "wikidata": "Q1039683",
        "lines": [
          "MRT Blue Line"
        ],
        "operational": true,
        "osm_id": 12803915078
      }
    },
    {
      "type": "Feature",
      "geometry": {
        "type": "Point",
        "coordinates": [
          100.4857,
          13.738364
        ]
      },
      "properties": {
        "name": "Itsaraphap",
        "ref": "BL32",
        "wikidata": "Q25537502",
        "lines": [
          "MRT Blue Line"
        ],
        "operational": true,
        "osm_id": 12803915080
      }
    },
    {
      "type": "Feature",
      "geometry": {
        "type": "Point",
        "coordinates": [
          100.541046,
          13.802392
        ]
      },
      "properties": {
        "name": "Bang Sue",
        "ref": "BL11",
        "wikidata": "Q4384431",
        "lines": [
          "MRT Blue Line"
        ],
        "operational": true,
        "osm_id": 12803915082
      }
    },
    {
      "type": "Feature",
      "geometry": {
        "type": "Point",
        "coordinates": [
          100.563417,
          13.749185
        ]
      },
      "properties": {
        "name": "Phetchaburi",
        "ref": "BL21",
        "wikidata": "Q4921013",
        "lines": [
          "MRT Blue Line"
        ],
        "operational": true,
        "osm_id": 12805950167
      }
    }
  ],
  "metadata": {
    "source": "OpenStreetMap (Overpass API)",
    "bbox": [
      13.45,
      100.3,
      13.95,
      100.85
    ],
    "total_stations": 193
  }
}