{
  "type": "FeatureCollection",
  "features": [
    {
      "type": "Feature",
      "geometry": {
        "type": "Point",
        "coordinates": [
          100.521462,
          13.719268
        ]
      },
      "properties": {
        "name": "Surasak",
        "ref": "S5",
        "wikidata": "Q1030152",
        "lines": [
          "BTS Silom Line"
        ],
        "operational": true,
        "osm_id": 257066779
      }
    },
    {
      "type": "Feature",
      "geometry": {
        "type": "Point",
        "coordinates": [
          100.529325,
          13.723797
        ]
      },
      "properties": {
        "name": "Chong Nonsi",
        "ref": "S3",
        "wikidata": "Q1030199",
        "lines": [
          "BTS Silom Line"
        ],
        "operational": true,
        "osm_id": 257066790
      }
    },
    {
      "type": "Feature",
      "geometry": {
        "type": "Point",
        "coordinates": [
          100.53945,
          13.739471
        ]
      },
      "properties": {
        "name": "Ratchadamri",
        "ref": "S1",
        "wikidata": "Q1030185",
        "lines": [
          "BTS Silom Line"
        ],
        "operational": true,
        "osm_id": 257066809
      }
    },
    {
      "type": "Feature",
      "geometry": {
        "type": "Point",
        "coordinates": [
          100.52909,
          13.746532
        ]
      },
      "properties": {
        "name": "National Stadium",
        "ref": "W1",
        "wikidata": "",
        "lines": [
          "BTS Silom Line"
        ],
        "operational": true,
        "osm_id": 257066819
      }
    },
    {
      "type": "Feature",
      "geometry": {
        "type": "Point",
        "coordinates": [
          100.514223,
          13.718813
        ]
      },
      "properties": {
        "name": "Saphan Taksin",
        "ref": "S6",
        "wikidata": "Q1021944",
        "lines": [
          "BTS Silom Line"
        ],
        "operational": true,
        "osm_id": 257067085
      }
    },
    {
      "type": "Feature",
      "geometry": {
        "type": "Point",
        "coordinates": [
          100.531572,
          13.751879
        ]
      },
      "properties": {
        "name": "Ratchathewi",
        "ref": "N1",
        "wikidata": "",
        "lines": [
          "BTS Sukhumvit Line"
        ],
        "operational": true,
        "osm_id": 270666787
      }
    },
    {
      "type": "Feature",
      "geometry": {
        "type": "Point",
        "coordinates": [
          100.533807,
          13.756978
        ]
      },
      "properties": {
        "name": "Phaya Thai",
        "ref": "N2",
        "wikidata": "",
        "lines": [
          "Airport Rail Link",
          "BTS Sukhumvit Line"
        ],
        "operational": true,
        "osm_id": 270666790
      }
    },
    {
      "type": "Feature",
      "geometry": {
        "type": "Point",
        "coordinates": [
          100.537067,
          13.762753
        ]
      },
      "properties": {
        "name": "Victory Monument",
        "ref": "N3",
        "wikidata": "",
        "lines": [
          "BTS Sukhumvit Line"
        ],
        "operational": true,
        "osm_id": 270666791
      }
    },
    {
      "type": "Feature",
      "geometry": {
        "type": "Point",
        "coordinates": [
          100.542093,
          13.772615
        ]
      },
      "properties": {
        "name": "Sanam Pao",
        "ref": "N4",
        "wikidata": "",
        "lines": [
          "BTS Sukhumvit Line"
        ],
        "operational": true,
        "osm_id": 270666802
      }
    },
    {
      "type": "Feature",
      "geometry": {
        "type": "Point",
        "coordinates": [
          100.54464,
          13.779706
        ]
      },
      "properties": {
        "name": "Ari",
        "ref": "N5",
        "wikidata": "",
        "lines": [
          "BTS Sukhumvit Line"
        ],
        "operational": true,
        "osm_id": 270666804
      }
    },
    {
      "type": "Feature",
      "geometry": {
        "type": "Point",
        "coordinates": [
          100.546865,
          13.785936
        ]
      },
      "properties": {
        "name": "Sena Ruam",
        "ref": "N6",
        "wikidata": "Q16307686",
        "lines": [
          "BTS Sukhumvit Line"
        ],
        "operational": false,
        "osm_id": 270666805
      }
    },
    {
      "type": "Feature",
      "geometry": {
        "type": "Point",
        "coordinates": [
          100.549724,
          13.793819
        ]
      },
      "properties": {
        "name": "Saphan Khwai",
        "ref": "N7",
        "wikidata": "",
        "lines": [
          "BTS Sukhumvit Line"
        ],
        "operational": true,
        "osm_id": 270666806
      }
    },
    {
      "type": "Feature",
      "geometry": {
        "type": "Point",
        "coordinates": [
          100.553811,
          13.802598
        ]
      },
      "properties": {
        "name": "Mo Chit",
        "ref": "N8",
        "wikidata": "",
        "lines": [
          "BTS Sukhumvit Line"
        ],
        "operational": true,
        "osm_id": 270666810
      }
    },
    {
      "type": "Feature",
      "geometry": {
        "type": "Point",
        "coordinates": [
          100.555443,
          13.740555
        ]
      },
      "properties": {
        "name": "Nana",
        "ref": "E3",
        "wikidata": "",
        "lines": [
          "BTS Sukhumvit Line"
        ],
        "operational": true,
        "osm_id": 270668230
      }
    },
    {
      "type": "Feature",
      "geometry": {
        "type": "Point",
        "coordinates": [
          100.543073,
          13.744119
        ]
      },
      "properties": {
        "name": "Chit Lom",
        "ref": "E1",
        "wikidata": "",
        "lines": [
          "BTS Sukhumvit Line"
        ],
        "operational": true,
        "osm_id": 270668232
      }
    },
    {
      "type": "Feature",
      "geometry": {
        "type": "Point",
        "coordinates": [
          100.569724,
          13.730452
        ]
      },
      "properties": {
        "name": "Phrom Phong",
        "ref": "E5",
        "wikidata": "",
        "lines": [
          "BTS Sukhumvit Line"
        ],
        "operational": true,
        "osm_id": 275514306
      }
    },
    {
      "type": "Feature",
      "geometry": {
        "type": "Point",
        "coordinates": [
          100.560342,
          13.73703
        ]
      },
      "properties": {
        "name": "Asok",
        "ref": "E4",
        "wikidata": "",
        "lines": [
          "BTS Sukhumvit Line"
        ],
        "operational": true,
        "osm_id": 275514816
      }
    },
    {
      "type": "Feature",
      "geometry": {
        "type": "Point",
        "coordinates": [
          100.548971,
          13.74305
        ]
      },
      "properties": {
        "name": "Phloen Chit",
        "ref": "E2",
        "wikidata": "",
        "lines": [
          "BTS Sukhumvit Line"
        ],
        "operational": true,
        "osm_id": 275515851
      }
    },
    {
      "type": "Feature",
      "geometry": {
        "type": "Point",
        "coordinates": [
          100.57853,
          13.724257
        ]
      },
      "properties": {
        "name": "Thong Lo",
        "ref": "E6",
        "wikidata": "",
        "lines": [
          "BTS Sukhumvit Line"
        ],
        "operational": true,
        "osm_id": 277360712
      }
    },
    {
      "type": "Feature",
      "geometry": {
        "type": "Point",
        "coordinates": [
          100.585128,
          13.719551
        ]
      },
      "properties": {
        "name": "Ekkamai BTS Station",
        "ref": "E7",
        "wikidata": "",
        "lines": [
          "BTS Sukhumvit Line"
        ],
        "operational": true,
        "osm_id": 277360862
      }
    },
    {
      "type": "Feature",
      "geometry": {
        "type": "Point",
        "coordinates": [
          100.591225,
          13.715157
        ]
      },
      "properties": {
        "name": "Phra Khanong",
        "ref": "E8",
        "wikidata": "",
        "lines": [
          "BTS Sukhumvit Line"
        ],
        "operational": true,
        "osm_id": 277360879
      }
    },
    {
      "type": "Feature",
      "geometry": {
        "type": "Point",
        "coordinates": [
          100.600983,
          13.705619
        ]
      },
      "properties": {
        "name": "On Nut",
        "ref": "E9",
        "wikidata": "",
        "lines": [
          "BTS Sukhumvit Line"
        ],
        "operational": true,
        "osm_id": 277361532
      }
    },
    {
      "type": "Feature",
      "geometry": {
        "type": "Point",
        "coordinates": [
          100.517135,
          13.737571
        ]
      },
      "properties": {
        "name": "Hua Lamphong",
        "ref": "BL28",
        "wikidata": "Q13021858",
        "lines": [
          "MRT Blue Line"
        ],
        "operational": true,
        "osm_id": 280179404
      }
    },
    {
      "type": "Feature",
      "geometry": {
        "type": "Point",
        "coordinates": [
          100.561396,
          13.737496
        ]
      },
      "properties": {
        "name": "Sukhumvit",
        "ref": "BL22",
        "wikidata": "",
        "lines": [
          "MRT Blue Line"
        ],
        "operational": true,
        "osm_id": 280179421
      }
    },
    {
      "type": "Feature",
      "geometry": {
        "type": "Point",
        "coordinates": [
          100.563338,
          13.7492
        ]
      },
      "properties": {
        "name": "Phetchaburi",
        "ref": "BL21",
        "wikidata": "",
        "lines": [
          "MRT Blue Line"
        ],
        "operational": true,
        "osm_id": 280179426
      }
    },
    {
      "type": "Feature",
      "geometry": {
        "type": "Point",
        "coordinates": [
          100.565277,
          13.757817
        ]
      },
      "properties": {
        "name": "Phra Ram 9",
        "ref": "BL20",
        "wikidata": "Q1036857",
        "lines": [
          "MRT Blue Line"
        ],
        "operational": true,
        "osm_id": 280179427
      }
    },
    {
      "type": "Feature",
      "geometry": {
        "type": "Point",
        "coordinates": [
          100.537068,
          13.729174
        ]
      },
      "properties": {
        "name": "Si Lom",
        "ref": "BL26",
        "wikidata": "",
        "lines": [
          "MRT Blue Line"
        ],
        "operational": true,
        "osm_id": 280179442
      }
    },
    {
      "type": "Feature",
      "geometry": {
        "type": "Point",
        "coordinates": [
          100.559913,
          13.722672
        ]
      },
      "properties": {
        "name": "Queen Sirikit National Convention Centre",
        "ref": "BL23",
        "wikidata": "Q4921067",
        "lines": [
          "MRT Blue Line"
        ],
        "operational": true,
        "osm_id": 280179448
      }
    },
    {
      "type": "Feature",
      "geometry": {
        "type": "Point",
        "coordinates": [
          100.545725,
          13.725607
        ]
      },
      "properties": {
        "name": "Lumphini",
        "ref": "BL25",
        "wikidata": "Q4923316",
        "lines": [
          "MRT Blue Line"
        ],
        "operational": true,
        "osm_id": 280222462
      }
    },
    {
      "type": "Feature",
      "geometry": {
        "type": "Point",
        "coordinates": [
          100.530114,
          13.732046
        ]
      },
      "properties": {
        "name": "Sam Yan",
        "ref": "BL27",
        "wikidata": "",
        "lines": [
          "MRT Blue Line"
        ],
        "operational": true,
        "osm_id": 280222869
      }
    },
    {
      "type": "Feature",
      "geometry": {
        "type": "Point",
        "coordinates": [
          100.573566,
          13.778688
        ]
      },
      "properties": {
        "name": "Huai Khwang",
        "ref": "BL18",
        "wikidata": "Q13021853",
        "lines": [
          "MRT Blue Line"
        ],
        "operational": true,
        "osm_id": 280239009
      }
    },
    {
      "type": "Feature",
      "geometry": {
        "type": "Point",
        "coordinates": [
          100.57408,
          13.789488
        ]
      },
      "properties": {
        "name": "Sutthisan",
        "ref": "BL17",
        "wikidata": "Q4923841",
        "lines": [
          "MRT Blue Line"
        ],
        "operational": true,
        "osm_id": 280239362
      }
    },
    {
      "type": "Feature",
      "geometry": {
        "type": "Point",
        "coordinates": [
          100.574554,
          13.798971
        ]
      },
      "properties": {
        "name": "Ratchadaphisek",
        "ref": "BL16",
        "wikidata": "Q4924317",
        "lines": [
          "MRT Blue Line"
        ],
        "operational": true,
        "osm_id": 280239363
      }
    },
    {
      "type": "Feature",
      "geometry": {
        "type": "Point",
        "coordinates": [
          100.570083,
          13.766291
        ]
      },
      "properties": {
        "name": "Thailand Cultural Centre",
        "ref": "BL19",
        "wikidata": "Q6633637",
        "lines": [
          "MRT Blue Line"
        ],
        "operational": true,
        "osm_id": 280240574
      }
    },
    {
      "type": "Feature",
      "geometry": {
        "type": "Point",
        "coordinates": [
          100.57287,
          13.806503
        ]
      },
      "properties": {
        "name": "Lat Phrao",
        "ref": "BL15",
        "wikidata": "Q4923372",
        "lines": [
          "MRT Blue Line"
        ],
        "operational": true,
        "osm_id": 280240577
      }
    },
    {
      "type": "Feature",
      "geometry": {
        "type": "Point",
        "coordinates": [
          100.561463,
          13.812881
        ]
      },
      "properties": {
        "name": "Phahon Yothin",
        "ref": "BL14",
        "wikidata": "Q4919752",
        "lines": [
          "MRT Blue Line"
        ],
        "operational": true,
        "osm_id": 280240580
      }
    },
    {
      "type": "Feature",
      "geometry": {
        "type": "Point",
        "coordinates": [
          100.553285,
          13.802964
        ]
      },
      "properties": {
        "name": "Chatuchak Park",
        "ref": "BL13",
        "wikidata": "Q6633742",
        "lines": [
          "MRT Blue Line"
        ],
        "operational": true,
        "osm_id": 280240585
      }
    },
    {
      "type": "Feature",
      "geometry": {
        "type": "Point",
        "coordinates": [
          100.547884,
          13.797948
        ]
      },
      "properties": {
        "name": "Kamphaeng Phet",
        "ref": "BL12",
        "wikidata": "Q13590884",
        "lines": [
          "MRT Blue Line"
        ],
        "operational": true,
        "osm_id": 280240589
      }
    },
    {
      "type": "Feature",
      "geometry": {
        "type": "Point",
        "coordinates": [
          100.54103,
          13.802354
        ]
      },
      "properties": {
        "name": "Bang Sue",
        "ref": "BL11",
        "wikidata": "",
        "lines": [
          "MRT Blue Line"
        ],
        "operational": true,
        "osm_id": 280246418
      }
    },
    {
      "type": "Feature",
      "geometry": {
        "type": "Point",
        "coordinates": [
          100.55437,
          13.722126
        ]
      },
      "properties": {
        "name": "Khlong Toei",
        "ref": "BL24",
        "wikidata": "Q4920172",
        "lines": [
          "MRT Blue Line"
        ],
        "operational": true,
        "osm_id": 280729450
      }
    },
    {
      "type": "Feature",
      "geometry": {
        "type": "Point",
        "coordinates": [
          100.485968,
          13.719243
        ]
      },
      "properties": {
        "name": "Pho Nimit",
        "ref": "S9",
        "wikidata": "Q18388309",
        "lines": [
          "BTS Silom Line"
        ],
        "operational": true,
        "osm_id": 305693940
      }
    },
    {
      "type": "Feature",
      "geometry": {
        "type": "Point",
        "coordinates": [
          100.476691,
          13.71422
        ]
      },
      "properties": {
        "name": "Talat Phlu",
        "ref": "S10",
        "wikidata": "Q18393239",
        "lines": [
          "BTS Silom Line"
        ],
        "operational": true,
        "osm_id": 340133002
      }
    },
    {
      "type": "Feature",
      "geometry": {
        "type": "Point",
        "coordinates": [
          100.495159,
          13.721082
        ]
      },
      "properties": {
        "name": "Wongwian Yai",
        "ref": "S8",
        "wikidata": "Q13021824",
        "lines": [
          "BTS Silom Line"
        ],
        "operational": true,
        "osm_id": 443815142
      }
    },
    {
      "type": "Feature",
      "geometry": {
        "type": "Point",
        "coordinates": [
          100.502718,
          13.720931
        ]
      },
      "properties": {
        "name": "Krung Thon Buri",
        "ref": "S7",
        "wikidata": "Q11299499",
        "lines": [
          "BTS Silom Line"
        ],
        "operational": true,
        "osm_id": 443815144
      }
    },
    {
      "type": "Feature",
      "geometry": {
        "type": "Point",
        "coordinates": [
          100.534342,
          13.728568
        ]
      },
      "properties": {
        "name": "Sala Daeng",
        "ref": "S2",
        "wikidata": "Q13021833",
        "lines": [
          "BTS Silom Line"
        ],
        "operational": true,
        "osm_id": 451697335
      }
    },
    {
      "type": "Feature",
      "geometry": {
        "type": "Point",
        "coordinates": [
          100.559813,
          13.751067
        ]
      },
      "properties": {
        "name": "Makkasan",
        "ref": "A6",
        "wikidata": "",
        "lines": [
          "Airport Rail Link"
        ],
        "operational": true,
        "osm_id": 917014949
      }
    },
    {
      "type": "Feature",
      "geometry": {
        "type": "Point",
        "coordinates": [
          100.542048,
          13.755089
        ]
      },
      "properties": {
        "name": "Ratchaprarop",
        "ref": "A7",
        "wikidata": "",
        "lines": [
          "Airport Rail Link"
        ],
        "operational": true,
        "osm_id": 917014985
      }
    },
    {
      "type": "Feature",
      "geometry": {
        "type": "Point",
        "coordinates": [
          100.751388,
          13.694843
        ]
      },
      "properties": {
        "name": "Suvarnabhumi",
        "ref": "A1",
        "wikidata": "",
        "lines": [
          "Airport Rail Link"
        ],
        "operational": true,
        "osm_id": 917022633
      }
    },
    {
      "type": "Feature",
      "geometry": {
        "type": "Point",
        "coordinates": [
          100.645262,
          13.738017
        ]
      },
      "properties": {
        "name": "Hua Mak",
        "ref": "A4",
        "wikidata": "Q6633722",
        "lines": [
          "Airport Rail Link"
        ],
        "operational": true,
        "osm_id": 970112998
      }
    },
    {
      "type": "Feature",
      "geometry": {
        "type": "Point",
        "coordinates": [
          100.599744,
          13.743018
        ]
      },
      "properties": {
        "name": "Ramkhamhaeng",
        "ref": "A5",
        "wikidata": "Q6633628",
        "lines": [
          "Airport Rail Link"
        ],
        "operational": true,
        "osm_id": 999013479
      }
    },
    {
      "type": "Feature",
      "geometry": {
        "type": "Point",
        "coordinates": [
          100.747833,
          13.727645
        ]
      },
      "properties": {
        "name": "Lat Krabang",
        "ref": "A2",
        "wikidata": "",
        "lines": [
          "Airport Rail Link"
        ],
        "operational": true,
        "osm_id": 999013485
      }
    },
    {
      "type": "Feature",
      "geometry": {
        "type": "Point",
        "coordinates": [
          100.690808,
          13.73286
        ]
      },
      "properties": {
        "name": "Ban Thap Chang",
        "ref": "A3",
        "wikidata": "",
        "lines": [
          "Airport Rail Link"
        ],
        "operational": true,
        "osm_id": 999013489
      }
    },
    {
      "type": "Feature",
      "geometry": {
        "type": "Point",
        "coordinates": [
          100.468903,
          13.713023
        ]
      },
      "properties": {
        "name": "Wutthakat",
        "ref": "S11",
        "wikidata": "Q13021838",
        "lines": [
          "BTS Silom Line"
        ],
        "operational": true,
        "osm_id": 1113055052
      }
    },
    {
      "type": "Feature",
      "geometry": {
        "type": "Point",
        "coordinates": [
          100.605318,
          13.696756
        ]
      },
      "properties": {
        "name": "Bang Chak",
        "ref": "E10",
        "wikidata": "",
        "lines": [
          "BTS Sukhumvit Line"
        ],
        "operational": true,
        "osm_id": 1560656072
      }
    },
    {
      "type": "Feature",
      "geometry": {
        "type": "Point",
        "coordinates": [
          100.534215,
          13.822154
        ]
      },
      "properties": {
        "name": "Bang Son",
        "ref": "2",
        "wikidata": "Q23869363",
        "lines": [
          "SRT Light Red Line"
        ],
        "operational": true,
        "osm_id": 1648414719
      }
    },
    {
      "type": "Feature",
      "geometry": {
        "type": "Point",
        "coordinates": [
          100.457805,
          13.720796
        ]
      },
      "properties": {
        "name": "Bang Wa",
        "ref": "S12",
        "wikidata": "",
        "lines": [
          "BTS Silom Line"
        ],
        "operational": true,
        "osm_id": 1672566455
      }
    },
    {
      "type": "Feature",
      "geometry": {
        "type": "Point",
        "coordinates": [
          100.53422,
          13.745624
        ]
      },
      "properties": {
        "name": "Siam",
        "ref": "CEN",
        "wikidata": "Q1016037",
        "lines": [
          "BTS Silom Line",
          "BTS Sukhumvit Line"
        ],
        "operational": true,
        "osm_id": 1692209237
      }
    },
    {
      "type": "Feature",
      "geometry": {
        "type": "Point",
        "coordinates": [
          100.608977,
          13.689272
        ]
      },
      "properties": {
        "name": "Punnawithi",
        "ref": "E11",
        "wikidata": "",
        "lines": [
          "BTS Sukhumvit Line"
        ],
        "operational": true,
        "osm_id": 1726172762
      }
    },
    {
      "type": "Feature",
      "geometry": {
        "type": "Point",
        "coordinates": [
          100.60949,
          13.679868
        ]
      },
      "properties": {
        "name": "Udom Suk",
        "ref": "E12",
        "wikidata": "",
        "lines": [
          "BTS Sukhumvit Line"
        ],
        "operational": true,
        "osm_id": 1726175401
      }
    },
    {
      "type": "Feature",
      "geometry": {
        "type": "Point",
        "coordinates": [
          100.604681,
          13.668136
        ]
      },
      "properties": {
        "name": "Bang Na",
        "ref": "E13",
        "wikidata": "",
        "lines": [
          "BTS Sukhumvit Line"
        ],
        "operational": true,
        "osm_id": 1726177803
      }
    },
    {
      "type": "Feature",
      "geometry": {
        "type": "Point",
        "coordinates": [
          100.601789,
          13.661194
        ]
      },
      "properties": {
        "name": "Bearing",
        "ref": "E14",
        "wikidata": "",
        "lines": [
          "BTS Sukhumvit Line"
        ],
        "operational": true,
        "osm_id": 1726177804
      }
    },
    {
      "type": "Feature",
      "geometry": {
        "type": "Point",
        "coordinates": [
          100.477418,
          13.792242
        ]
      },
      "properties": {
        "name": "Bang Bamru",
        "ref": "",
        "wikidata": "",
        "lines": [
          "SRT Light Red Line"
        ],
        "operational": true,
        "osm_id": 2039197279
      }
    },
    {
      "type": "Feature",
      "geometry": {
        "type": "Point",
        "coordinates": [
          100.440092,
          13.789288
        ]
      },
      "properties": {
        "name": "Taling Chan Junction",
        "ref": "3",
        "wikidata": "",
        "lines": [
          "SRT Light Red Line"
        ],
        "operational": true,
        "osm_id": 2039197506
      }
    },
    {
      "type": "Feature",
      "geometry": {
        "type": "Point",
        "coordinates": [
          100.474042,
          13.729647
        ]
      },
      "properties": {
        "name": "Tha Phra",
        "ref": "BL01",
        "wikidata": "Q13021620",
        "lines": [
          "MRT Blue Line"
        ],
        "operational": true,
        "osm_id": 2094758805
      }
    },
    {
      "type": "Feature",
      "geometry": {
        "type": "Point",
        "coordinates": [
          100.473296,
          13.763325
        ]
      },
      "properties": {
        "name": "Bang Khun Non",
        "ref": "BL04",
        "wikidata": "Q66372327",
        "lines": [
          "MRT Blue Line"
        ],
        "operational": true,
        "osm_id": 2094758837
      }
    },
    {
      "type": "Feature",
      "geometry": {
        "type": "Point",
        "coordinates": [
          100.502303,
          13.746981
        ]
      },
      "properties": {
        "name": "Sam Yot",
        "ref": "BL30",
        "wikidata": "",
        "lines": [
          "MRT Blue Line"
        ],
        "operational": true,
        "osm_id": 2324802007
      }
    },
    {
      "type": "Feature",
      "geometry": {
        "type": "Point",
        "coordinates": [
          100.530771,
          13.806147
        ]
      },
      "properties": {
        "name": "Tao Poon",
        "ref": "BL10",
        "wikidata": "",
        "lines": [
          "MRT Blue Line",
          "MRT Purple Line"
        ],
        "operational": true,
        "osm_id": 2465782414
      }
    },
    {
      "type": "Feature",
      "geometry": {
        "type": "Point",
        "coordinates": [
          100.532521,
          13.820087
        ]
      },
      "properties": {
        "name": "Bang Son",
        "ref": "PP15",
        "wikidata": "",
        "lines": [
          "MRT Purple Line"
        ],
        "operational": true,
        "osm_id": 3487510793
      }
    },
    {
      "type": "Feature",
      "geometry": {
        "type": "Point",
        "coordinates": [
          100.526456,
          13.829821
        ]
      },
      "properties": {
        "name": "Wong Sawang",
        "ref": "PP14",
        "wikidata": "",
        "lines": [
          "MRT Purple Line"
        ],
        "operational": true,
        "osm_id": 3487510833
      }
    },
    {
      "type": "Feature",
      "geometry": {
        "type": "Point",
        "coordinates": [
          100.51493,
          13.839483
        ]
      },
      "properties": {
        "name": "Yaek Tiwanon",
        "ref": "PP13",
        "wikidata": "",
        "lines": [
          "MRT Purple Line"
        ],
        "operational": true,
        "osm_id": 3487510857
      }
    },
    {
      "type": "Feature",
      "geometry": {
        "type": "Point",
        "coordinates": [
          100.514776,
          13.848499
        ]
      },
      "properties": {
        "name": "Ministry of Public Health",
        "ref": "PP12",
        "wikidata": "",
        "lines": [
          "MRT Purple Line"
        ],
        "operational": true,
        "osm_id": 3487511003
      }
    },
    {
      "type": "Feature",
      "geometry": {
        "type": "Point",
        "coordinates": [
          100.513056,
          13.860113
        ]
      },
      "properties": {
        "name": "Nonthaburi Civic Center",
        "ref": "PP11",
        "wikidata": "",
        "lines": [
          "MRT Purple Line"
        ],
        "operational": true,
        "osm_id": 3487511058
      }
    },
    {
      "type": "Feature",
      "geometry": {
        "type": "Point",
        "coordinates": [
          100.504635,
          13.861597
        ]
      },
      "properties": {
        "name": "Bang Krasor",
        "ref": "PP10",
        "wikidata": "",
        "lines": [
          "MRT Purple Line"
        ],
        "operational": true,
        "osm_id": 3487511083
      }
    },
    {
      "type": "Feature",
      "geometry": {
        "type": "Point",
        "coordinates": [
          100.494046,
          13.865906
        ]
      },
      "properties": {
        "name": "Yaek Nonthaburi 1",
        "ref": "PP9",
        "wikidata": "",
        "lines": [
          "MRT Purple Line"
        ],
        "operational": true,
        "osm_id": 3487511211
      }
    },
    {
      "type": "Feature",
      "geometry": {
        "type": "Point",
        "coordinates": [
          100.480138,
          13.870227
        ]
      },
      "properties": {
        "name": "Phra Nang Klao Bridge",
        "ref": "PP8",
        "wikidata": "",
        "lines": [
          "MRT Purple Line"
        ],
        "operational": true,
        "osm_id": 3487511257
      }
    },
    {
      "type": "Feature",
      "geometry": {
        "type": "Point",
        "coordinates": [
          100.466677,
          13.870451
        ]
      },
      "properties": {
        "name": "Sai Ma",
        "ref": "PP7",
        "wikidata": "",
        "lines": [
          "MRT Purple Line"
        ],
        "operational": true,
        "osm_id": 3487511280
      }
    },
    {
      "type": "Feature",
      "geometry": {
        "type": "Point",
        "coordinates": [
          100.419369,
          13.874612
        ]
      },
      "properties": {
        "name": "Sam Yaek Bang Yai",
        "ref": "PP3",
        "wikidata": "",
        "lines": [
          "MRT Purple Line"
        ],
        "operational": true,
        "osm_id": 3487511428
      }
    },
    {
      "type": "Feature",
      "geometry": {
        "type": "Point",
        "coordinates": [
          100.455943,
          13.874752
        ]
      },
      "properties": {
        "name": "Bang Rak Noi Tha It",
        "ref": "PP6",
        "wikidata": "",
        "lines": [
          "MRT Purple Line"
        ],
        "operational": true,
        "osm_id": 3487511436
      }
    },
    {
      "type": "Feature",
      "geometry": {
        "type": "Point",
        "coordinates": [
          100.433809,
          13.875708
        ]
      },
      "properties": {
        "name": "Bang Phlu",
        "ref": "PP4",
        "wikidata": "",
        "lines": [
          "MRT Purple Line"
        ],
        "operational": true,
        "osm_id": 3487511461
      }
    },
    {
      "type": "Feature",
      "geometry": {
        "type": "Point",
        "coordinates": [
          100.444943,
          13.876544
        ]
      },
      "properties": {
        "name": "Bang Rak Yai",
        "ref": "PP5",
        "wikidata": "",
        "lines": [
          "MRT Purple Line"
        ],
        "operational": true,
        "osm_id": 3487511490
      }
    },
    {
      "type": "Feature",
      "geometry": {
        "type": "Point",
        "coordinates": [
          100.409225,
          13.88101
        ]
      },
      "properties": {
        "name": "Talad Bang Yai",
        "ref": "PP2",
        "wikidata": "",
        "lines": [
          "MRT Purple Line"
        ],
        "operational": true,
        "osm_id": 3487511733
      }
    },
    {
      "type": "Feature",
      "geometry": {
        "type": "Point",
        "coordinates": [
          100.408156,
          13.892429
        ]
      },
      "properties": {
        "name": "Khlong Bang Phai",
        "ref": "PP1",
        "wikidata": "",
        "lines": [
          "MRT Purple Line"
        ],
        "operational": true,
        "osm_id": 3487511747
      }
    },
    {
      "type": "Feature",
      "geometry": {
        "type": "Point",
        "coordinates": [
          100.581987,
          13.886289
        ]
      },
      "properties": {
        "name": "Lak Si",
        "ref": "3",
        "wikidata": "",
        "lines": [
          "SRT Dark Red Line"
        ],
        "operational": true,
        "osm_id": 3699968297
      }
    },
    {
      "type": "Feature",
      "geometry": {
        "type": "Point",
        "coordinates": [
          100.470709,
          13.740171
        ]
      },
      "properties": {
        "name": "Charan 13",
        "ref": "BL02",
        "wikidata": "Q66088546",
        "lines": [
          "MRT Blue Line"
        ],
        "operational": true,
        "osm_id": 3801037850
      }
    },
    {
      "type": "Feature",
      "geometry": {
        "type": "Point",
        "coordinates": [
          100.504888,
          13.792411
        ]
      },
      "properties": {
        "name": "Bang Phlat",
        "ref": "BL07",
        "wikidata": "Q95770449",
        "lines": [
          "MRT Blue Line"
        ],
        "operational": true,
        "osm_id": 3801037852
      }
    },
    {
      "type": "Feature",
      "geometry": {
        "type": "Point",
        "coordinates": [
          100.485256,
          13.777382
        ]
      },
      "properties": {
        "name": "Bang Yi Khan",
        "ref": "BL05",
        "wikidata": "Q66372347",
        "lines": [
          "MRT Blue Line"
        ],
        "operational": true,
        "osm_id": 3801037853
      }
    },
    {
      "type": "Feature",
      "geometry": {
        "type": "Point",
        "coordinates": [
          100.457037,
          13.720259
        ]
      },
      "properties": {
        "name": "Bang Wa",
        "ref": "BL34",
        "wikidata": "",
        "lines": [
          "MRT Blue Line"
        ],
        "operational": true,
        "osm_id": 3801037854
      }
    },
    {
      "type": "Feature",
      "geometry": {
        "type": "Point",
        "coordinates": [
          100.509786,
          13.79898
        ]
      },
      "properties": {
        "name": "Bang O",
        "ref": "BL08",
        "wikidata": "Q95770065",
        "lines": [
          "MRT Blue Line"
        ],
        "operational": true,
        "osm_id": 3801037855
      }
    },
    {
      "type": "Feature",
      "geometry": {
        "type": "Point",
        "coordinates": [
          100.422337,
          13.711944
        ]
      },
      "properties": {
        "name": "Bang Khae",
        "ref": "BL37",
        "wikidata": "Q19794085",
        "lines": [
          "MRT Blue Line"
        ],
        "operational": true,
        "osm_id": 3801037856
      }
    },
    {
      "type": "Feature",
      "geometry": {
        "type": "Point",
        "coordinates": [
          100.52101,
          13.806403
        ]
      },
      "properties": {
        "name": "Bang Pho",
        "ref": "BL09",
        "wikidata": "Q95769171",
        "lines": [
          "MRT Blue Line"
        ],
        "operational": true,
        "osm_id": 3801040557
      }
    },
    {
      "type": "Feature",
      "geometry": {
        "type": "Point",
        "coordinates": [
          100.465079,
          13.724618
        ]
      },
      "properties": {
        "name": "Bang Phai",
        "ref": "BL33",
        "wikidata": "Q66091152",
        "lines": [
          "MRT Blue Line"
        ],
        "operational": true,
        "osm_id": 3801040558
      }
    },
    {
      "type": "Feature",
      "geometry": {
        "type": "Point",
        "coordinates": [
          100.434326,
          13.71291
        ]
      },
      "properties": {
        "name": "Phasi Charoen",
        "ref": "BL36",
        "wikidata": "Q13021653",
        "lines": [
          "MRT Blue Line"
        ],
        "operational": true,
        "osm_id": 3801040559
      }
    },
    {
      "type": "Feature",
      "geometry": {
        "type": "Point",
        "coordinates": [
          100.494692,
          13.744334
        ]
      },
      "properties": {
        "name": "Sanam Chai",
        "ref": "BL31",
        "wikidata": "",
        "lines": [
          "MRT Blue Line"
        ],
        "operational": true,
        "osm_id": 3801040560
      }
    },
    {
      "type": "Feature",
      "geometry": {
        "type": "Point",
        "coordinates": [
          100.409485,
          13.710877
        ]
      },
      "properties": {
        "name": "Lak Song",
        "ref": "BL38",
        "wikidata": "Q13021860",
        "lines": [
          "MRT Blue Line"
        ],
        "operational": true,
        "osm_id": 3801040561
      }
    },
    {
      "type": "Feature",
      "geometry": {
        "type": "Point",
        "coordinates": [
          100.485702,
          13.738327
        ]
      },
      "properties": {
        "name": "Itsaraphap",
        "ref": "BL32",
        "wikidata": "",
        "lines": [
          "MRT Blue Line"
        ],
        "operational": true,
        "osm_id": 3801040562
      }
    },
    {
      "type": "Feature",
      "geometry": {
        "type": "Point",
        "coordinates": [
          100.509905,
          13.742201
        ]
      },
      "properties": {
        "name": "Wat Mangkon",
        "ref": "BL29",
        "wikidata": "",
        "lines": [
          "MRT Blue Line"
        ],
        "operational": true,
        "osm_id": 3801040563
      }
    },
    {
      "type": "Feature",
      "geometry": {
        "type": "Point",
        "coordinates": [
          100.445451,
          13.715559
        ]
      },
      "properties": {
        "name": "Phetkasem 48",
        "ref": "BL35",
        "wikidata": "Q16307680",
        "lines": [
          "MRT Blue Line"
        ],
        "operational": true,
        "osm_id": 3801040564
      }
    },
    {
      "type": "Feature",
      "geometry": {
        "type": "Point",
        "coordinates": [
          100.596732,
          13.875277
        ]
      },
      "properties": {
        "name": "Wat Phra Sri Mahathat",
        "ref": "N17",
        "wikidata": "Q61357968",
        "lines": [
          "BTS Sukhumvit Line"
        ],
        "operational": true,
        "osm_id": 3805378261
      }
    },
    {
      "type": "Feature",
      "geometry": {
        "type": "Point",
        "coordinates": [
          100.595855,
          13.64647
        ]
      },
      "properties": {
        "name": "Samrong",
        "ref": "E15",
        "wikidata": "",
        "lines": [
          "BTS Sukhumvit Line"
        ],
        "operational": true,
        "osm_id": 4774928037
      }
    },
    {
      "type": "Feature",
      "geometry": {
        "type": "Point",
        "coordinates": [
          100.509069,
          13.726462
        ]
      },
      "properties": {
        "name": "Charoen Nakhon",
        "ref": "G2",
        "wikidata": "Q104212231",
        "lines": [
          "BTS Gold Line"
        ],
        "operational": true,
        "osm_id": 5812248586
      }
    },
    {
      "type": "Feature",
      "geometry": {
        "type": "Point",
        "coordinates": [
          100.507721,
          13.730307
        ]
      },
      "properties": {
        "name": "Khlong San",
        "ref": "G3",
        "wikidata": "Q104212244",
        "lines": [
          "BTS Gold Line"
        ],
        "operational": true,
        "osm_id": 5812248587
      }
    },
    {
      "type": "Feature",
      "geometry": {
        "type": "Point",
        "coordinates": [
          100.59199,
          13.637287
        ]
      },
      "properties": {
        "name": "Pu Chao",
        "ref": "E16",
        "wikidata": "",
        "lines": [
          "BTS Sukhumvit Line"
        ],
        "operational": true,
        "osm_id": 6123597367
      }
    },
    {
      "type": "Feature",
      "geometry": {
        "type": "Point",
        "coordinates": [
          100.590161,
          13.621541
        ]
      },
      "properties": {
        "name": "Chang Erawan",
        "ref": "E17",
        "wikidata": "",
        "lines": [
          "BTS Sukhumvit Line"
        ],
        "operational": true,
        "osm_id": 6123597368
      }
    },
    {
      "type": "Feature",
      "geometry": {
        "type": "Point",
        "coordinates": [
          100.59494,
          13.608433
        ]
      },
      "properties": {
        "name": "Royal Thai Naval Academy",
        "ref": "E18",
        "wikidata": "",
        "lines": [
          "BTS Sukhumvit Line"
        ],
        "operational": true,
        "osm_id": 6123597369
      }
    },
    {
      "type": "Feature",
      "geometry": {
        "type": "Point",
        "coordinates": [
          100.597137,
          13.602095
        ]
      },
      "properties": {
        "name": "Pak Nam",
        "ref": "E19",
        "wikidata": "",
        "lines": [
          "BTS Sukhumvit Line"
        ],
        "operational": true,
        "osm_id": 6123597370
      }
    },
    {
      "type": "Feature",
      "geometry": {
        "type": "Point",
        "coordinates": [
          100.608985,
          13.592018
        ]
      },
      "properties": {
        "name": "Srinagarindra",
        "ref": "E20",
        "wikidata": "",
        "lines": [
          "BTS Sukhumvit Line"
        ],
        "operational": true,
        "osm_id": 6123597371
      }
    },
    {
      "type": "Feature",
      "geometry": {
        "type": "Point",
        "coordinates": [
          100.607861,
          13.584235
        ]
      },
      "properties": {
        "name": "Phraek Sa",
        "ref": "E21",
        "wikidata": "",
        "lines": [
          "BTS Sukhumvit Line"
        ],
        "operational": true,
        "osm_id": 6123597372
      }
    },
    {
      "type": "Feature",
      "geometry": {
        "type": "Point",
        "coordinates": [
          100.605467,
          13.577872
        ]
      },
      "properties": {
        "name": "Sai Luat",
        "ref": "E22",
        "wikidata": "",
        "lines": [
          "BTS Sukhumvit Line"
        ],
        "operational": true,
        "osm_id": 6123597373
      }
    },
    {
      "type": "Feature",
      "geometry": {
        "type": "Point",
        "coordinates": [
          100.607726,
          13.567706
        ]
      },
      "properties": {
        "name": "Kheha",
        "ref": "E23",
        "wikidata": "",
        "lines": [
          "BTS Sukhumvit Line"
        ],
        "operational": true,
        "osm_id": 6123597374
      }
    },
    {
      "type": "Feature",
      "geometry": {
        "type": "Point",
        "coordinates": [
          100.549524,
          13.826595
        ]
      },
      "properties": {
        "name": "Chatuchak",
        "ref": "3",
        "wikidata": "",
        "lines": [
          "SRT Dark Red Line"
        ],
        "operational": true,
        "osm_id": 6433543893
      }
    },
    {
      "type": "Feature",
      "geometry": {
        "type": "Point",
        "coordinates": [
          100.493327,
          13.783873
        ]
      },
      "properties": {
        "name": "Sirindhorn",
        "ref": "BL06",
        "wikidata": "Q83555413",
        "lines": [
          "MRT Blue Line"
        ],
        "operational": true,
        "osm_id": 6563228219
      }
    },
    {
      "type": "Feature",
      "geometry": {
        "type": "Point",
        "coordinates": [
          100.644158,
          13.711144
        ]
      },
      "properties": {
        "name": "Si Nut",
        "ref": "YL13",
        "wikidata": "",
        "lines": [
          "MRT Yellow Line"
        ],
        "operational": true,
        "osm_id": 6563254035
      }
    },
    {
      "type": "Feature",
      "geometry": {
        "type": "Point",
        "coordinates": [
          100.625837,
          13.925013
        ]
      },
      "properties": {
        "name": "Yaek Kor Por Aor",
        "ref": "N23",
        "wikidata": "Q104211805",
        "lines": [
          "BTS Sukhumvit Line"
        ],
        "operational": true,
        "osm_id": 6681609012
      }
    },
    {
      "type": "Feature",
      "geometry": {
        "type": "Point",
        "coordinates": [
          100.621691,
          13.917971
        ]
      },
      "properties": {
        "name": "Royal Thai Air Force Museum",
        "ref": "N22",
        "wikidata": "Q104211775",
        "lines": [
          "BTS Sukhumvit Line"
        ],
        "operational": true,
        "osm_id": 6681609016
      }
    },
    {
      "type": "Feature",
      "geometry": {
        "type": "Point",
        "coordinates": [
          100.617396,
          13.910714
        ]
      },
      "properties": {
        "name": "Bhumibol Adulyadej Hospital",
        "ref": "N21",
        "wikidata": "Q104211764",
        "lines": [
          "BTS Sukhumvit Line"
        ],
        "operational": true,
        "osm_id": 6681609017
      }
    },
    {
      "type": "Feature",
      "geometry": {
        "type": "Point",
        "coordinates": [
          100.609077,
          13.896613
        ]
      },
      "properties": {
        "name": "Saphan Mai",
        "ref": "N20",
        "wikidata": "Q104211663",
        "lines": [
          "BTS Sukhumvit Line"
        ],
        "operational": true,
        "osm_id": 6681609018
      }
    },
    {
      "type": "Feature",
      "geometry": {
        "type": "Point",
        "coordinates": [
          100.604269,
          13.888451
        ]
      },
      "properties": {
        "name": "Sai Yud",
        "ref": "N19",
        "wikidata": "Q104211647",
        "lines": [
          "BTS Sukhumvit Line"
        ],
        "operational": true,
        "osm_id": 6681609019
      }
    },
    {
      "type": "Feature",
      "geometry": {
        "type": "Point",
        "coordinates": [
          100.600731,
          13.882448
        ]
      },
      "properties": {
        "name": "Phahonyothin 59",
        "ref": "N18",
        "wikidata": "Q104211602",
        "lines": [
          "BTS Sukhumvit Line"
        ],
        "operational": true,
        "osm_id": 6681609020
      }
    },
    {
      "type": "Feature",
      "geometry": {
        "type": "Point",
        "coordinates": [
          100.591973,
          13.867578
        ]
      },
      "properties": {
        "name": "11th Infantry Regiment",
        "ref": "N16",
        "wikidata": "Q96096780",
        "lines": [
          "BTS Sukhumvit Line"
        ],
        "operational": true,
        "osm_id": 6681609024
      }
    },
    {
      "type": "Feature",
      "geometry": {
        "type": "Point",
        "coordinates": [
          100.585179,
          13.856049
        ]
      },
      "properties": {
        "name": "Bang Bua",
        "ref": "N15",
        "wikidata": "Q96075530",
        "lines": [
          "BTS Sukhumvit Line"
        ],
        "operational": true,
        "osm_id": 6681609025
      }
    },
    {
      "type": "Feature",
      "geometry": {
        "type": "Point",
        "coordinates": [
          100.581816,
          13.850326
        ]
      },
      "properties": {
        "name": "Royal Forest Department",
        "ref": "N14",
        "wikidata": "Q96096835",
        "lines": [
          "BTS Sukhumvit Line"
        ],
        "operational": true,
        "osm_id": 6681609026
      }
    },
    {
      "type": "Feature",
      "geometry": {
        "type": "Point",
        "coordinates": [
          100.577105,
          13.842314
        ]
      },
      "properties": {
        "name": "Kasetsart University",
        "ref": "N13",
        "wikidata": "Q76973081",
        "lines": [
          "BTS Sukhumvit Line"
        ],
        "operational": true,
        "osm_id": 6681609027
      }
    },
    {
      "type": "Feature",
      "geometry": {
        "type": "Point",
        "coordinates": [
          100.573629,
          13.836406
        ]
      },
      "properties": {
        "name": "Sena Nikhom",
        "ref": "N12",
        "wikidata": "Q76973119",
        "lines": [
          "BTS Sukhumvit Line"
        ],
        "operational": true,
        "osm_id": 6681609028
      }
    },
    {
      "type": "Feature",
      "geometry": {
        "type": "Point",
        "coordinates": [
          100.569722,
          13.829748
        ]
      },
      "properties": {
        "name": "Ratchayothin",
        "ref": "N11",
        "wikidata": "Q76972519",
        "lines": [
          "BTS Sukhumvit Line"
        ],
        "operational": true,
        "osm_id": 6681609029
      }
    },
    {
      "type": "Feature",
      "geometry": {
        "type": "Point",
        "coordinates": [
          100.566425,
          13.824121
        ]
      },
      "properties": {
        "name": "Phahonyothin 24",
        "ref": "N10",
        "wikidata": "Q13021643",
        "lines": [
          "BTS Sukhumvit Line"
        ],
        "operational": true,
        "osm_id": 6681609030
      }
    },
    {
      "type": "Feature",
      "geometry": {
        "type": "Point",
        "coordinates": [
          100.561943,
          13.816725
        ]
      },
      "properties": {
        "name": "Ha Yaek Lat Phrao",
        "ref": "N9",
        "wikidata": "",
        "lines": [
          "BTS Sukhumvit Line"
        ],
        "operational": true,
        "osm_id": 6681609031
      }
    },
    {
      "type": "Feature",
      "geometry": {
        "type": "Point",
        "coordinates": [
          100.623187,
          13.778377
        ]
      },
      "properties": {
        "name": "Mahatthai",
        "ref": "YL06",
        "wikidata": "",
        "lines": [
          "MRT Yellow Line"
        ],
        "operational": true,
        "osm_id": 6695196331
      }
    },
    {
      "type": "Feature",
      "geometry": {
        "type": "Point",
        "coordinates": [
          100.594465,
          13.794431
        ]
      },
      "properties": {
        "name": "Chok Chai 4",
        "ref": "YL03",
        "wikidata": "",
        "lines": [
          "MRT Yellow Line"
        ],
        "operational": true,
        "osm_id": 6695196338
      }
    },
    {
      "type": "Feature",
      "geometry": {
        "type": "Point",
        "coordinates": [
          100.557551,
          13.841576
        ]
      },
      "properties": {
        "name": "Wat Samian Nari",
        "ref": "3",
        "wikidata": "",
        "lines": [
          "SRT Dark Red Line"
        ],
        "operational": true,
        "osm_id": 6697089669
      }
    },
    {
      "type": "Feature",
      "geometry": {
        "type": "Point",
        "coordinates": [
          100.636241,
          13.643471
        ]
      },
      "properties": {
        "name": "Si Bearing",
        "ref": "YL19",
        "wikidata": "",
        "lines": [
          "MRT Yellow Line"
        ],
        "operational": true,
        "osm_id": 6703032843
      }
    },
    {
      "type": "Feature",
      "geometry": {
        "type": "Point",
        "coordinates": [
          100.630104,
          13.633125
        ]
      },
      "properties": {
        "name": "Si Dan",
        "ref": "YL20",
        "wikidata": "",
        "lines": [
          "MRT Yellow Line"
        ],
        "operational": true,
        "osm_id": 6703032848
      }
    },
    {
      "type": "Feature",
      "geometry": {
        "type": "Point",
        "coordinates": [
          100.596616,
          13.645044
        ]
      },
      "properties": {
        "name": "Samrong",
        "ref": "YL23",
        "wikidata": "",
        "lines": [
          "MRT Yellow Line"
        ],
        "operational": true,
        "osm_id": 6703032849
      }
    },
    {
      "type": "Feature",
      "geometry": {
        "type": "Point",
        "coordinates": [
          100.622682,
          13.629879
        ]
      },
      "properties": {
        "name": "Si Thepha",
        "ref": "YL21",
        "wikidata": "",
        "lines": [
          "MRT Yellow Line"
        ],
        "operational": true,
        "osm_id": 6703032861
      }
    },
    {
      "type": "Feature",
      "geometry": {
        "type": "Point",
        "coordinates": [
          100.46932,
          13.755801
        ]
      },
      "properties": {
        "name": "Fai Chai",
        "ref": "BL03",
        "wikidata": "Q66087746",
        "lines": [
          "MRT Blue Line"
        ],
        "operational": true,
        "osm_id": 7096345624
      }
    },
    {
      "type": "Feature",
      "geometry": {
        "type": "Point",
        "coordinates": [
          100.544248,
          13.910445
        ]
      },
      "properties": {
        "name": "Impact Muang Thong Thani",
        "ref": "MT01",
        "wikidata": "",
        "lines": [
          "MRT Pink Line"
        ],
        "operational": true,
        "osm_id": 7156540353
      }
    },
    {
      "type": "Feature",
      "geometry": {
        "type": "Point",
        "coordinates": [
          100.644812,
          13.750433
        ]
      },
      "properties": {
        "name": "Si Kritha",
        "ref": "YL10",
        "wikidata": "",
        "lines": [
          "MRT Yellow Line"
        ],
        "operational": true,
        "osm_id": 7271108084
      }
    },
    {
      "type": "Feature",
      "geometry": {
        "type": "Point",
        "coordinates": [
          100.542004,
          13.80378
        ]
      },
      "properties": {
        "name": "Krung Thep Aphiwat",
        "ref": "10",
        "wikidata": "",
        "lines": [
          "SRT Dark Red Line",
          "SRT Light Red Line"
        ],
        "operational": true,
        "osm_id": 7314652453
      }
    },
    {
      "type": "Feature",
      "geometry": {
        "type": "Point",
        "coordinates": [
          100.597991,
          13.914624
        ]
      },
      "properties": {
        "name": "Don Muang",
        "ref": "4",
        "wikidata": "",
        "lines": [
          "SRT Dark Red Line"
        ],
        "operational": true,
        "osm_id": 7314656147
      }
    },
    {
      "type": "Feature",
      "geometry": {
        "type": "Point",
        "coordinates": [
          100.588924,
          13.898631
        ]
      },
      "properties": {
        "name": "Kan Kheha",
        "ref": "3",
        "wikidata": "",
        "lines": [
          "SRT Dark Red Line"
        ],
        "operational": true,
        "osm_id": 7314656165
      }
    },
    {
      "type": "Feature",
      "geometry": {
        "type": "Point",
        "coordinates": [
          100.567583,
          13.860182
        ]
      },
      "properties": {
        "name": "Thung Song Hong",
        "ref": "3",
        "wikidata": "",
        "lines": [
          "SRT Dark Red Line"
        ],
        "operational": true,
        "osm_id": 7314656183
      }
    },
    {
      "type": "Feature",
      "geometry": {
        "type": "Point",
        "coordinates": [
          100.561724,
          13.849339
        ]
      },
      "properties": {
        "name": "Bang Khen",
        "ref": "3",
        "wikidata": "",
        "lines": [
          "SRT Dark Red Line"
        ],
        "operational": true,
        "osm_id": 7314656186
      }
    },
    {
      "type": "Feature",
      "geometry": {
        "type": "Point",
        "coordinates": [
          100.510563,
          13.889258
        ]
      },
      "properties": {
        "name": "Samakkhi",
        "ref": "PK04",
        "wikidata": "",
        "lines": [
          "MRT Pink Line"
        ],
        "operational": true,
        "osm_id": 7647114249
      }
    },
    {
      "type": "Feature",
      "geometry": {
        "type": "Point",
        "coordinates": [
          100.516307,
          13.8741
        ]
      },
      "properties": {
        "name": "Sanambin Nam",
        "ref": "PK03",
        "wikidata": "",
        "lines": [
          "MRT Pink Line"
        ],
        "operational": true,
        "osm_id": 7647114250
      }
    },
    {
      "type": "Feature",
      "geometry": {
        "type": "Point",
        "coordinates": [
          100.503714,
          13.721168
        ]
      },
      "properties": {
        "name": "Krung Thon Buri",
        "ref": "1",
        "wikidata": "",
        "lines": [
          "BTS Gold Line"
        ],
        "operational": true,
        "osm_id": 7781133227
      }
    },
    {
      "type": "Feature",
      "geometry": {
        "type": "Point",
        "coordinates": [
          100.526686,
          13.720816
        ]
      },
      "properties": {
        "name": "Saint Louis",
        "ref": "S4",
        "wikidata": "Q13021839",
        "lines": [
          "BTS Silom Line"
        ],
        "operational": true,
        "osm_id": 7781158247
      }
    },
    {
      "type": "Feature",
      "geometry": {
        "type": "Point",
        "coordinates": [
          100.609916,
          13.636736
        ]
      },
      "properties": {
        "name": "Thipphawan",
        "ref": "YL22",
        "wikidata": "",
        "lines": [
          "MRT Yellow Line"
        ],
        "operational": true,
        "osm_id": 7781234528
      }
    },
    {
      "type": "Feature",
      "geometry": {
        "type": "Point",
        "coordinates": [
          100.723483,
          13.803544
        ]
      },
      "properties": {
        "name": "Keha Ramkhamhaeng",
        "ref": "OR27",
        "wikidata": "",
        "lines": [
          "MRT Orange Line"
        ],
        "operational": false,
        "osm_id": 7947495107
      }
    },
    {
      "type": "Feature",
      "geometry": {
        "type": "Point",
        "coordinates": [
          100.545652,
          13.918379
        ]
      },
      "properties": {
        "name": "Lake Muang Thong Thani",
        "ref": "MT02",
        "wikidata": "",
        "lines": [
          "MRT Pink Line"
        ],
        "operational": true,
        "osm_id": 8067064024
      }
    },
    {
      "type": "Feature",
      "geometry": {
        "type": "Point",
        "coordinates": [
          100.646523,
          13.932366
        ]
      },
      "properties": {
        "name": "Khu Khot",
        "ref": "N24",
        "wikidata": "Q66103267",
        "lines": [
          "BTS Sukhumvit Line"
        ],
        "operational": true,
        "osm_id": 8214007176
      }
    },
    {
      "type": "Feature",
      "geometry": {
        "type": "Point",
        "coordinates": [
          100.645081,
          13.667663
        ]
      },
      "properties": {
        "name": "Si Iam",
        "ref": "YL17",
        "wikidata": "",
        "lines": [
          "MRT Yellow Line"
        ],
        "operational": true,
        "osm_id": 8717828065
      }
    },
    {
      "type": "Feature",
      "geometry": {
        "type": "Point",
        "coordinates": [
          100.642136,
          13.654958
        ]
      },
      "properties": {
        "name": "Si La Salle",
        "ref": "YL18",
        "wikidata": "",
        "lines": [
          "MRT Yellow Line"
        ],
        "operational": true,
        "osm_id": 8717828067
      }
    },
    {
      "type": "Feature",
      "geometry": {
        "type": "Point",
        "coordinates": [
          100.646484,
          13.701115
        ]
      },
      "properties": {
        "name": "Srinagarindra 38",
        "ref": "YL14",
        "wikidata": "",
        "lines": [
          "MRT Yellow Line"
        ],
        "operational": true,
        "osm_id": 8717841716
      }
    },
    {
      "type": "Feature",
      "geometry": {
        "type": "Point",
        "coordinates": [
          100.641796,
          13.725343
        ]
      },
      "properties": {
        "name": "Kalantan",
        "ref": "YL12",
        "wikidata": "",
        "lines": [
          "MRT Yellow Line"
        ],
        "operational": true,
        "osm_id": 8717841725
      }
    },
    {
      "type": "Feature",
      "geometry": {
        "type": "Point",
        "coordinates": [
          100.645552,
          13.761844
        ]
      },
      "properties": {
        "name": "Yaek Lam Sali",
        "ref": "YL09",
        "wikidata": "",
        "lines": [
          "MRT Yellow Line"
        ],
        "operational": true,
        "osm_id": 8717933829
      }
    },
    {
      "type": "Feature",
      "geometry": {
        "type": "Point",
        "coordinates": [
          100.639756,
          13.769098
        ]
      },
      "properties": {
        "name": "Bang Kapi",
        "ref": "YL08",
        "wikidata": "",
        "lines": [
          "MRT Yellow Line"
        ],
        "operational": true,
        "osm_id": 8717933831
      }
    },
    {
      "type": "Feature",
      "geometry": {
        "type": "Point",
        "coordinates": [
          100.629803,
          13.774678
        ]
      },
      "properties": {
        "name": "Lat Phrao 101",
        "ref": "YL07",
        "wikidata": "",
        "lines": [
          "MRT Yellow Line"
        ],
        "operational": true,
        "osm_id": 8717933832
      }
    },
    {
      "type": "Feature",
      "geometry": {
        "type": "Point",
        "coordinates": [
          100.613605,
          13.783753
        ]
      },
      "properties": {
        "name": "Lat Phrao 83",
        "ref": "YL05",
        "wikidata": "",
        "lines": [
          "MRT Yellow Line"
        ],
        "operational": true,
        "osm_id": 8717933833
      }
    },
    {
      "type": "Feature",
      "geometry": {
        "type": "Point",
        "coordinates": [
          100.60759,
          13.787103
        ]
      },
      "properties": {
        "name": "Lat Phrao 71",
        "ref": "YL04",
        "wikidata": "",
        "lines": [
          "MRT Yellow Line"
        ],
        "operational": true,
        "osm_id": 8717933834
      }
    },
    {
      "type": "Feature",
      "geometry": {
        "type": "Point",
        "coordinates": [
          100.584217,
          13.800171
        ]
      },
      "properties": {
        "name": "Phawana",
        "ref": "YL02",
        "wikidata": "",
        "lines": [
          "MRT Yellow Line"
        ],
        "operational": true,
        "osm_id": 8717933835
      }
    },
    {
      "type": "Feature",
      "geometry": {
        "type": "Point",
        "coordinates": [
          100.574808,
          13.806991
        ]
      },
      "properties": {
        "name": "Lat Phrao",
        "ref": "YL01",
        "wikidata": "",
        "lines": [
          "MRT Yellow Line"
        ],
        "operational": true,
        "osm_id": 8717933837
      }
    },
    {
      "type": "Feature",
      "geometry": {
        "type": "Point",
        "coordinates": [
          100.732674,
          13.808402
        ]
      },
      "properties": {
        "name": "Min Buri",
        "ref": "PK30",
        "wikidata": "",
        "lines": [
          "MRT Pink Line"
        ],
        "operational": true,
        "osm_id": 8730762308
      }
    },
    {
      "type": "Feature",
      "geometry": {
        "type": "Point",
        "coordinates": [
          100.725833,
          13.812493
        ]
      },
      "properties": {
        "name": "Min Buri Market",
        "ref": "PK29",
        "wikidata": "",
        "lines": [
          "MRT Pink Line"
        ],
        "operational": true,
        "osm_id": 8730802232
      }
    },
    {
      "type": "Feature",
      "geometry": {
        "type": "Point",
        "coordinates": [
          100.702928,
          13.812702
        ]
      },
      "properties": {
        "name": "Bang Chan",
        "ref": "PK27",
        "wikidata": "",
        "lines": [
          "MRT Pink Line"
        ],
        "operational": true,
        "osm_id": 8730802242
      }
    },
    {
      "type": "Feature",
      "geometry": {
        "type": "Point",
        "coordinates": [
          100.712628,
          13.812678
        ]
      },
      "properties": {
        "name": "Setthabutbamphen",
        "ref": "PK28",
        "wikidata": "",
        "lines": [
          "MRT Pink Line"
        ],
        "operational": true,
        "osm_id": 8730802243
      }
    },
    {
      "type": "Feature",
      "geometry": {
        "type": "Point",
        "coordinates": [
          100.685641,
          13.81652
        ]
      },
      "properties": {
        "name": "Nopparat",
        "ref": "PK26",
        "wikidata": "Q123537786",
        "lines": [
          "MRT Pink Line"
        ],
        "operational": true,
        "osm_id": 8730802246
      }
    },
    {
      "type": "Feature",
      "geometry": {
        "type": "Point",
        "coordinates": [
          100.677195,
          13.82444
        ]
      },
      "properties": {
        "name": "Outer Ring Road-Ram Inthra",
        "ref": "PK25",
        "wikidata": "",
        "lines": [
          "MRT Pink Line"
        ],
        "operational": true,
        "osm_id": 9697341535
      }
    },
    {
      "type": "Feature",
      "geometry": {
        "type": "Point",
        "coordinates": [
          100.667563,
          13.833766
        ]
      },
      "properties": {
        "name": "Ram Inthra Kor Mor 9",
        "ref": "PK24",
        "wikidata": "",
        "lines": [
          "MRT Pink Line"
        ],
        "operational": true,
        "osm_id": 9697341538
      }
    },
    {
      "type": "Feature",
      "geometry": {
        "type": "Point",
        "coordinates": [
          100.597078,
          13.87435
        ]
      },
      "properties": {
        "name": "Wat Phra Sri Mahathat",
        "ref": "PK16",
        "wikidata": "",
        "lines": [
          "MRT Pink Line"
        ],
        "operational": true,
        "osm_id": 9733987626
      }
    },
    {
      "type": "Feature",
      "geometry": {
        "type": "Point",
        "coordinates": [
          100.589283,
          13.879928
        ]
      },
      "properties": {
        "name": "Rajabhat Phranakhon",
        "ref": "PK15",
        "wikidata": "",
        "lines": [
          "MRT Pink Line"
        ],
        "operational": true,
        "osm_id": 9733987641
      }
    },
    {
      "type": "Feature",
      "geometry": {
        "type": "Point",
        "coordinates": [
          100.602604,
          13.870939
        ]
      },
      "properties": {
        "name": "Ram Inthra 3",
        "ref": "PK17",
        "wikidata": "",
        "lines": [
          "MRT Pink Line"
        ],
        "operational": true,
        "osm_id": 9734277455
      }
    },
    {
      "type": "Feature",
      "geometry": {
        "type": "Point",
        "coordinates": [
          100.617802,
          13.862778
        ]
      },
      "properties": {
        "name": "Lat Pla Khao",
        "ref": "PK18",
        "wikidata": "",
        "lines": [
          "MRT Pink Line"
        ],
        "operational": true,
        "osm_id": 9734277456
      }
    },
    {
      "type": "Feature",
      "geometry": {
        "type": "Point",
        "coordinates": [
          100.626119,
          13.858291
        ]
      },
      "properties": {
        "name": "Ram Inthra Kor Mor 4",
        "ref": "PK19",
        "wikidata": "",
        "lines": [
          "MRT Pink Line"
        ],
        "operational": true,
        "osm_id": 9734277457
      }
    },
    {
      "type": "Feature",
      "geometry": {
        "type": "Point",
        "coordinates": [
          100.632213,
          13.855001
        ]
      },
      "properties": {
        "name": "Maiyalap",
        "ref": "PK20",
        "wikidata": "",
        "lines": [
          "MRT Pink Line"
        ],
        "operational": true,
        "osm_id": 9734277458
      }
    },
    {
      "type": "Feature",
      "geometry": {
        "type": "Point",
        "coordinates": [
          100.642869,
          13.84925
        ]
      },
      "properties": {
        "name": "Vacharaphol",
        "ref": "PK21",
        "wikidata": "",
        "lines": [
          "MRT Pink Line"
        ],
        "operational": true,
        "osm_id": 9734277459
      }
    },
    {
      "type": "Feature",
      "geometry": {
        "type": "Point",
        "coordinates": [
          100.650234,
          13.845243
        ]
      },
      "properties": {
        "name": "Ram Inthra Kor Mor 6",
        "ref": "PK22",
        "wikidata": "",
        "lines": [
          "MRT Pink Line"
        ],
        "operational": true,
        "osm_id": 9734277460
      }
    },
    {
      "type": "Feature",
      "geometry": {
        "type": "Point",
        "coordinates": [
          100.658781,
          13.840609
        ]
      },
      "properties": {
        "name": "Khu Bon",
        "ref": "PK23",
        "wikidata": "",
        "lines": [
          "MRT Pink Line"
        ],
        "operational": true,
        "osm_id": 9734277461
      }
    },
    {
      "type": "Feature",
      "geometry": {
        "type": "Point",
        "coordinates": [
          100.582681,
          13.884049
        ]
      },
      "properties": {
        "name": "Lak Si",
        "ref": "PK14",
        "wikidata": "",
        "lines": [
          "MRT Pink Line"
        ],
        "operational": true,
        "osm_id": 9913078093
      }
    },
    {
      "type": "Feature",
      "geometry": {
        "type": "Point",
        "coordinates": [
          100.507079,
          13.898537
        ]
      },
      "properties": {
        "name": "Royal Irrigation Department",
        "ref": "PK05",
        "wikidata": "",
        "lines": [
          "MRT Pink Line"
        ],
        "operational": true,
        "osm_id": 10147872913
      }
    },
    {
      "type": "Feature",
      "geometry": {
        "type": "Point",
        "coordinates": [
          100.5054,
          13.906148
        ]
      },
      "properties": {
        "name": "Yaek Pak Kret",
        "ref": "PK06",
        "wikidata": "",
        "lines": [
          "MRT Pink Line"
        ],
        "operational": true,
        "osm_id": 10867419311
      }
    },
    {
      "type": "Feature",
      "geometry": {
        "type": "Point",
        "coordinates": [
          100.529267,
          13.904138
        ]
      },
      "properties": {
        "name": "Chaeng Watthana-Pak Kret 28",
        "ref": "PK08",
        "wikidata": "",
        "lines": [
          "MRT Pink Line"
        ],
        "operational": true,
        "osm_id": 10867419312
      }
    },
    {
      "type": "Feature",
      "geometry": {
        "type": "Point",
        "coordinates": [
          100.515558,
          13.906477
        ]
      },
      "properties": {
        "name": "Pak Kret Bypass",
        "ref": "PK07",
        "wikidata": "",
        "lines": [
          "MRT Pink Line"
        ],
        "operational": true,
        "osm_id": 10867419318
      }
    },
    {
      "type": "Feature",
      "geometry": {
        "type": "Point",
        "coordinates": [
          100.646171,
          13.676638
        ]
      },
      "properties": {
        "name": "Si Udom",
        "ref": "",
        "wikidata": "Q119010086",
        "lines": [
          "MRT Yellow Line"
        ],
        "operational": true,
        "osm_id": 10867419319
      }
    },
    {
      "type": "Feature",
      "geometry": {
        "type": "Point",
        "coordinates": [
          100.647103,
          13.690864
        ]
      },
      "properties": {
        "name": "Suan Luang Rama IX",
        "ref": "YL15",
        "wikidata": "Q119010410",
        "lines": [
          "MRT Yellow Line"
        ],
        "operational": true,
        "osm_id": 10867419320
      }
    },
    {
      "type": "Feature",
      "geometry": {
        "type": "Point",
        "coordinates": [
          100.641138,
          13.736148
        ]
      },
      "properties": {
        "name": "Hua Mak",
        "ref": "YL11",
        "wikidata": "Q109130566",
        "lines": [
          "MRT Yellow Line"
        ],
        "operational": true,
        "osm_id": 10867419324
      }
    },
    {
      "type": "Feature",
      "geometry": {
        "type": "Point",
        "coordinates": [
          100.518106,
          13.8597
        ]
      },
      "properties": {
        "name": "Nonthaburi Civic Center",
        "ref": "PK01",
        "wikidata": "",
        "lines": [
          "MRT Pink Line"
        ],
        "operational": true,
        "osm_id": 11364308558
      }
    },
    {
      "type": "Feature",
      "geometry": {
        "type": "Point",
        "coordinates": [
          100.520642,
          13.86264
        ]
      },
      "properties": {
        "name": "Khae Rai",
        "ref": "PK02",
        "wikidata": "",
        "lines": [
          "MRT Pink Line"
        ],
        "operational": true,
        "osm_id": 11364361870
      }
    },
    {
      "type": "Feature",
      "geometry": {
        "type": "Point",
        "coordinates": [
          100.540031,
          13.900635
        ]
      },
      "properties": {
        "name": "Si Rat",
        "ref": "PK09",
        "wikidata": "",
        "lines": [
          "MRT Pink Line"
        ],
        "operational": true,
        "osm_id": 11364361909
      }
    },
    {
      "type": "Feature",
      "geometry": {
        "type": "Point",
        "coordinates": [
          100.548436,
          13.897398
        ]
      },
      "properties": {
        "name": "Muang Thong Thani",
        "ref": "PK10",
        "wikidata": "",
        "lines": [
          "MRT Pink Line"
        ],
        "operational": true,
        "osm_id": 11364361936
      }
    },
    {
      "type": "Feature",
      "geometry": {
        "type": "Point",
        "coordinates": [
          100.560143,
          13.893283
        ]
      },
      "properties": {
        "name": "Chaeng Watthana 14",
        "ref": "PK11",
        "wikidata": "",
        "lines": [
          "MRT Pink Line"
        ],
        "operational": true,
        "osm_id": 11364361948
      }
    },
    {
      "type": "Feature",
      "geometry": {
        "type": "Point",
        "coordinates": [
          100.567342,
          13.890753
        ]
      },
      "properties": {
        "name": "Government Complex",
        "ref": "PK12",
        "wikidata": "",
        "lines": [
          "MRT Pink Line"
        ],
        "operational": true,
        "osm_id": 11364465362
      }
    },
    {
      "type": "Feature",
      "geometry": {
        "type": "Point",
        "coordinates": [
          100.575709,
          13.887563
        ]
      },
      "properties": {
        "name": "National Telecom",
        "ref": "PK13",
        "wikidata": "",
        "lines": [
          "MRT Pink Line"
        ],
        "operational": true,
        "osm_id": 11364501869
      }
    },
    {
      "type": "Feature",
      "geometry": {
        "type": "Point",
        "coordinates": [
          100.519481,
          13.795299
        ]
      },
      "properties": {
        "name": "Parliament House",
        "ref": "PP17",
        "wikidata": "",
        "lines": [
          "MRT Purple Line"
        ],
        "operational": false,
        "osm_id": 12620662269
      }
    },
    {
      "type": "Feature",
      "geometry": {
        "type": "Point",
        "coordinates": [
          100.512939,
          13.78706
        ]
      },
      "properties": {
        "name": "Sri Yan",
        "ref": "PP18",
        "wikidata": "",
        "lines": [
          "MRT Purple Line"
        ],
        "operational": false,
        "osm_id": 12620662270
      }
    },
    {
      "type": "Feature",
      "geometry": {
        "type": "Point",
        "coordinates": [
          100.508881,
          13.779495
        ]
      },
      "properties": {
        "name": "Vajira Hospital",
        "ref": "PP19",
        "wikidata": "",
        "lines": [
          "MRT Purple Line"
        ],
        "operational": false,
        "osm_id": 12620663626
      }
    },
    {
      "type": "Feature",
      "geometry": {
        "type": "Point",
        "coordinates": [
          100.503522,
          13.748581
        ]
      },
      "properties": {
        "name": "Sam Yot",
        "ref": "PP23",
        "wikidata": "",
        "lines": [
          "MRT Purple Line"
        ],
        "operational": false,
        "osm_id": 12620670967
      }
    },
    {
      "type": "Feature",
      "geometry": {
        "type": "Point",
        "coordinates": [
          100.50541,
          13.772149
        ]
      },
      "properties": {
        "name": "National Library",
        "ref": "PP20",
        "wikidata": "",
        "lines": [
          "MRT Purple Line"
        ],
        "operational": false,
        "osm_id": 12620679797
      }
    },
    {
      "type": "Feature",
      "geometry": {
        "type": "Point",
        "coordinates": [
          100.495101,
          13.732513
        ]
      },
      "properties": {
        "name": "Memorial Bridge",
        "ref": "PP24",
        "wikidata": "",
        "lines": [
          "MRT Purple Line"
        ],
        "operational": false,
        "osm_id": 12620703436
      }
    },
    {
      "type": "Feature",
      "geometry": {
        "type": "Point",
        "coordinates": [
          100.492303,
          13.724355
        ]
      },
      "properties": {
        "name": "Wongwian Yai",
        "ref": "PP25",
        "wikidata": "",
        "lines": [
          "MRT Purple Line"
        ],
        "operational": false,
        "osm_id": 12620703437
      }
    },
    {
      "type": "Feature",
      "geometry": {
        "type": "Point",
        "coordinates": [
          100.488035,
          13.711944
        ]
      },
      "properties": {
        "name": "Somdech Phra Pinklao Hospital",
        "ref": "PP26",
        "wikidata": "",
        "lines": [
          "MRT Purple Line"
        ],
        "operational": false,
        "osm_id": 12620703438
      }
    },
    {
      "type": "Feature",
      "geometry": {
        "type": "Point",
        "coordinates": [
          100.482444,
          13.695466
        ]
      },
      "properties": {
        "name": "Dao Khanong",
        "ref": "PP27",
        "wikidata": "",
        "lines": [
          "MRT Purple Line"
        ],
        "operational": false,
        "osm_id": 12620703439
      }
    },
    {
      "type": "Feature",
      "geometry": {
        "type": "Point",
        "coordinates": [
          100.504208,
          13.757478
        ]
      },
      "properties": {
        "name": "Democracy Monument",
        "ref": "PP22",
        "wikidata": "",
        "lines": [
          "MRT Purple Line"
        ],
        "operational": false,
        "osm_id": 12620720586
      }
    }
  ],
  "metadata": {
    "source": "OpenStreetMap (Overpass API)",
    "bbox": [
      13.45,
      100.3,
      13.95,
      100.85
    ],
    "total_stations": 201
  }
}